16:12:12.821 M,-17.5,M,,*59
16:12:12.836 $GPGSA,A,3,22,23,13,14,15,,,,,,,,10.16,6.84,7.52*3C
16:12:12.894 $GPGSV,4,1,13,01,,,31,02,,,37,07,,,36,08,,,35*77
16:12:12.942 $GPGSV,4,2,13,13,56,261,35,14,82,043,43,15,31,300,45,17,47,168,29*75
16:12:13.018 $GPGSV,4,3,13,19,23,187,37,21,,,37,22,75,262,37,23,05,334,33*48
16:12:13.083 $GPGSV,4,4,13,30,,,34*7F
16:12:13.111 $GPGLL,4915.10594,N,12313.98545,W,001211.00,A,A*7F
16:12:13.638 $GPRMC,001212.00,A,4915.10644,N,12313.98583,W,2.338,,071223,,,A*6E
16:12:13.706 $GPVTG,,T,,M,2.338,N,4.330,K,A*2D
16:12:13.744 $GPGGA,001212.00,4915.10644,N,12313.98583,W,1,05,6.84,53.9,M,-17.5,M,,*53
16:12:13.822 $GPGSA,A,3,22,23,13,14,15,,,,,,,,10.16,6.84,7.52*3C
16:12:13.879 $GPGSV,4,1,14,01,,,31,02,,,39,07,,,36,08,,,38*73
16:12:13.928 $GPGSV,4,2,14,13,56,261,34,14,82,043,45,15,31,300,37,17,47,168,34*7C
16:12:14.003 $GPGSV,4,3,14,19,23,187,36,21,,,41,22,75,262,35,23,05,334,33*4D
16:12:14.068 $GPGSV,4,4,14,30,,,33,46,29,148,31*49
16:12:14.109 $GPGLL,4915.10644,N,12313.98583,W,001212.00,A,A*78
16:12:14.647 $GPRMC,001213.00,A,4915.10693,N,12313.98645,W,2.420,336.57,071223,,,A*78
16:12:14.721 $GPVTG,336.57,T,,M,2.420,N,4.481,K,A*34
16:12:14.766 $GPGGA,001213.00,4915.10693,N,12313.98645,W,1,05,6.83,53.7,M,-17.5,M,,*58
16:12:14.843 $GPGSA,A,3,22,23,13,14,15,,,,,,,,10.16,6.83,7.51*38
16:12:14.899 $GPGSV,4,1,14,01,,,31,02,,,32,07,,,33,08,,,36*73
16:12:14.949 $GPGSV,4,2,14,13,56,261,44,14,82,043,44,15,31,300,41,17,47,168,35*7A
16:12:15.024 $GPGSV,4,3,14,19,23,187,35,21,,,38,22,75,262,41,23,05,334,28*49
16:12:15.090 $GPGSV,4,4,14,30,,,35,46,29,148,31*4F
16:12:15.131 $GPGLL,4915.10693,N,12313.98645,W,001213.00,A,A*7A
16:12:15.639 $GPRMC,001214.00,A,4915.10748,N,12313.98679,W,2.326,335.73,071223,,,A*73
16:12:15.714 $GPVTG,335.73,T,,M,2.326,N,4.308,K,A*36
16:12:15.757 $GPGGA,001214.00,4915.10748,N,12313.98679,W,1,05,6.83,53.1,M,-17.5,M,,*51
16:12:15.835 $GPGSA,A,3,22,23,13,14,15,,,,,,,,10.15,6.83,7.51*3B
16:12:15.891 $GPGSV,4,1,14,01,,,30,02,,,38,07,,,38,08,,,36*73
16:12:15.941 $GPGSV,4,2,14,13,56,261,43,14,82,043,42,15,31,300,28,17,47,168,34*75
16:12:16.016 $GPGSV,4,3,14,19,23,187,36,21,,,39,22,75,262,41,23,05,334,27*44
16:12:16.081 $GPGSV,4,4,14,30,,,35,46,29,148,33*4D
16:12:16.122 $GPGLL,4915.10748,N,12313.98679,W,001214.00,A,A*75
16:12:16.639 $GPRMC,001215.00,A,4915.10804,N,12313.98711,W,1.786,,071223,,,A*68
16:12:16.707 $GPVTG,,T,,M,1.786,N,3.307,K,A*2C
16:12:16.745 $GPGGA,001215.00,4915.10804,N,12313.98711,W,1,05,6.83,52.9,M,-17.5,M,,*51
16:12:16.823 $GPGSA,A,3,22,23,13,14,15,,,,,,,,10.15,6.83,7.51*3B
16:12:16.879 $GPGSV,4,1,14,01,,,29,02,,,31,07,,,36,08,,,36*7C
16:12:16.929 $GPGSV,4,2,14,13,56,261,40,14,82,043,39,15,31,300,40,17,47,168,30*70
16:12:17.004 $GPGSV,4,3,14,19,23,187,34,21,,,36,22,75,262,37,23,05,334,32*4C
16:12:17.069 $GPGSV,4,4,14,30,,,34,46,29,148,28*46
16:12:17.110 $GPGLL,4915.10804,N,12313.98711,W,001215.00,A,A*7C
16:12:17.638 $GPRMC,001216.00,A,4915.10884,N,12313.98756,W,1.916,,071223,,,A*67
16:12:17.706 $GPVTG,,T,,M,1.916,N,3.548,K,A*26
16:12:17.744 $GPGGA,001216.00,4915.10884,N,12313.98756,W,1,05,6.83,53.3,M,-17.5,M,,*52
16:12:17.822 $GPGSA,A,3,22,23,13,14,15,,,,,,,,10.14,6.83,7.50*3B
16:12:17.878 $GPGSV,4,1,14,01,,,30,02,,,31,07,,,35,08,,,29*79
16:12:17.928 $GPGSV,4,2,14,13,56,261,37,14,82,043,39,15,31,300,39,17,47,168,30*7E
16:12:18.003 $GPGSV,4,3,14,19,23,187,31,21,,,36,22,75,262,33,23,05,334,25*4B
16:12:18.069 $GPGSV,4,4,14,30,,,29,46,29,148,36*45
16:12:18.109 $GPGLL,4915.10884,N,12313.98756,W,001216.00,A,A*74
16:12:18.639 $GPRMC,001217.00,A,4915.10982,N,12313.98830,W,1.738,,071223,,,A*6C
16:12:18.707 $GPVTG,,T,,M,1.738,N,3.219,K,A*27
16:12:18.744 $GPGGA,001217.00,4915.10982,N,12313.98830,W,1,05,6.82,54.5,M,-17.5,M,,*5B
16:12:18.823 $GPGSA,A,3,22,23,13,14,15,,,,,,,,10.14,6.82,7.50*3A
16:12:18.879 $GPGSV,4,1,14,01,,,34,02,,,29,07,,,33,08,,,25*7E
16:12:18.929 $GPGSV,4,2,14,13,56,261,43,14,82,043,39,15,31,300,42,17,47,168,35*74
16:12:19.004 $GPGSV,4,3,14,19,23,187,36,21,,,33,22,75,262,36,23,05,334,32*4A
16:12:19.069 $GPGSV,4,4,14,30,,,33,46,29,148,35*4D
16:12:19.110 $GPGLL,4915.10982,N,12313.98830,W,001217.00,A,A*7D
16:12:19.640 $GPRMC,001218.00,A,4915.11057,N,12313.98874,W,2.952,338.66,071223,,,A*74
16:12:19.714 $GPVTG,338.66,T,,M,2.952,N,5.467,K,A*39
16:12:19.757 $GPGGA,001218.00,4915.11057,N,12313.98874,W,1,05,6.82,54.6,M,-17.5,M,,*57
16:12:19.836 $GPGSA,A,3,22,23,13,14,15,,,,,,,,10.13,6.82,7.50*3D
16:12:19.892 $GPGSV,4,1,14,01,,,36,02,,,39,07,,,36,08,,,27*7A
16:12:19.942 $GPGSV,4,2,14,13,56,261,42,14,82,043,41,15,31,300,42,17,47,168,35*7A
16:12:20.016 $GPGSV,4,3,14,19,23,187,33,21,,,40,22,75,262,38,23,05,334,35*42
16:12:20.082 $GPGSV,4,4,14,30,,,39,46,29,148,33*41
16:12:20.123 $GPGLL,4915.11057,N,12313.98874,W,001218.00,A,A*72
16:12:20.641 $GPRMC,001219.00,A,4915.11128,N,12313.98930,W,2.976,336.19,071223,,,A*7D
16:12:20.715 $GPVTG,336.19,T,,M,2.976,N,5.511,K,A*39
16:12:20.759 $GPGGA,001219.00,4915.11128,N,12313.98930,W,1,05,6.82,54.5,M,-17.5,M,,*5D
16:12:20.837 $GPGSA,A,3,22,23,13,14,15,,,,,,,,10.13,6.82,7.49*35
16:12:20.893 $GPGSV,4,1,14,01,,,33,02,,,38,07,,,31,08,,,24*7A
16:12:20.943 $GPGSV,4,2,14,13,56,261,40,14,82,043,41,15,31,300,43,17,47,168,31*7D
16:12:21.018 $GPGSV,4,3,14,19,23,187,33,21,,,33,22,75,262,39,23,05,334,35*47
16:12:21.083 $GPGSV,4,4,14,30,,,38,46,29,148,29*4B
16:12:21.124 $GPGLL,4915.11128,N,12313.98930,W,001219.00,A,A*7B
16:12:21.646 $GPRMC,001220.00,A,4915.11234,N,12313.99009,W,3.156,333.77,071223,,,A*7D
16:12:21.721 $GPVTG,333.77,T,,M,3.156,N,5.845,K,A*33
16:12:21.765 $GPGGA,001220.00,4915.11234,N,12313.99009,W,1,05,6.82,55.1,M,-17.5,M,,*5E
16:12:21.842 $GPGSA,A,3,22,23,13,14,15,,,,,,,,10.13,6.82,7.49*35
16:12:21.899 $GPGSV,4,1,14,01,,,36,02,,,39,07,,,35,08,,,25*7B
16:12:21.948 $GPGSV,4,2,14,13,56,261,39,14,82,043,37,15,31,300,39,17,47,168,34*7A
16:12:22.023 $GPGSV,4,3,14,19,23,187,34,21,,,40,22,75,262,35,23,05,334,34*49
16:12:22.089 $GPGSV,4,4,14,30,,,37,46,29,148,35*49
16:12:22.129 $GPGLL,4915.11234,N,12313.99009,W,001220.00,A,A*7D
16:12:22.641 $GPRMC,001221.00,A,4915.11364,N,12313.99093,W,3.290,335.34,071223,,,A*73
16:12:22.715 $GPVTG,335.34,T,,M,3.290,N,6.094,K,A*3C
16:12:22.759 $GPGGA,001221.00,4915.11364,N,12313.99093,W,1,05,6.81,56.1,M,-17.5,M,,*58
16:12:22.837 $GPGSA,A,3,22,23,13,14,15,,,,,,,,10.12,6.81,7.49*37
16:12:22.893 $GPGSV,4,1,14,01,,,33,02,,,42,07,,,34,08,,,23*75
16:12:22.943 $GPGSV,4,2,14,13,56,261,37,14,82,043,41,15,31,300,39,17,47,168,37*76
16:12:23.018 $GPGSV,4,3,14,19,23,187,30,21,,,32,22,75,262,32,23,05,334,31*4A
16:12:23.083 $GPGSV,4,4,14,30,,,39,46,29,148,33*41
16:12:23.124 $GPGLL,4915.11364,N,12313.99093,W,001221.00,A,A*7B
16:12:23.638 $GPRMC,001222.00,V,,,,,,,071223,,,N*7B
16:12:23.678 $GPVTG,,,,,,,,,N*30
16:12:23.700 $GPGGA,001222.00,,,,,0,05,16.23,,,,,,*66
16:12:23.744 $GPGSA,A,1,22,23,13,14,15,,,,,,,,29.77,16.23,24.96*36
16:12:23.800 $GPGSV,4,1,14,01,,,36,02,,,34,07,,,33,08,,,22*77
16:12:23.853 $GPGSV,4,2,14,13,56,261,43,14,82,043,41,15,31,300,43,17,47,168,29*77
16:12:23.925 $GPGSV,4,3,14,19,23,187,32,21,,,28,22,75,262,41,23,05,334,27*40
16:12:23.993 $GPGSV,4,4,14,30,,,40,46,29,148,31*4D
16:12:24.034 $GPGLL,,,,,001222.00,V,N*49
16:12:24.642 $GPRMC,001223.00,A,4915.11560,N,12313.99150,W,4.752,343.13,071223,,,A*75
16:12:24.717 $GPVTG,343.13,T,,M,4.752,N,8.801,K,A*3E
16:12:24.760 $GPGGA,001223.00,4915.11560,N,12313.99150,W,1,05,6.81,54.8,M,-17.5,M,,*5D
16:12:24.838 $GPGSA,A,3,22,23,13,14,15,,,,,,,,10.11,6.81,7.48*35
16:12:24.894 $GPGSV,4,1,14,01,,,38,02,,,31,07,,,38,08,,,20*75
16:12:24.944 $GPGSV,4,2,14,13,56,261,46,14,82,043,38,15,31,300,31,17,47,168,34*75
16:12:25.019 $GPGSV,4,3,14,19,23,187,33,21,,,14,22,75,262,37,23,05,334,27*4F
16:12:25.085 $GPGSV,4,4,14,30,,,40,46,29,148,35*49
16:12:25.125 $GPGLL,4915.11560,N,12313.99150,W,001223.00,A,A*75
16:12:25.640 $GPRMC,001224.00,A,4915.11627,N,12313.99205,W,3.706,342.55,071223,,,A*74
16:12:25.715 $GPVTG,342.55,T,,M,3.706,N,6.863,K,A*31
16:12:25.759 $GPGGA,001224.00,4915.11627,N,12313.99205,W,1,05,6.80,54.8,M,-17.5,M,,*58
16:12:25.837 $GPGSA,A,3,22,23,13,14,15,,,,,,,,10.11,6.80,7.48*34
16:12:25.893 $GPGSV,4,1,14,01,,,37,02,,,41,07,,,36,08,,,20*73
16:12:25.943 $GPGSV,4,2,14,13,56,261,40,14,82,043,36,15,31,300,45,17,47,168,35*7F
16:12:26.018 $GPGSV,4,3,14,19,23,187,30,21,,,25,22,75,262,37,23,05,334,27*4E
16:12:26.083 $GPGSV,4,4,14,30,,,40,46,29,148,31*4D
16:12:26.124 $GPGLL,4915.11627,N,12313.99205,W,001224.00,A,A*71
16:12:26.641 $GPRMC,001225.00,A,4915.11724,N,12313.99294,W,3.287,340.17,071223,,,A*77
16:12:26.715 $GPVTG,340.17,T,,M,3.287,N,6.088,K,A*34
16:12:26.759 $GPGGA,001225.00,4915.11724,N,12313.99294,W,1,05,6.80,55.5,M,-17.5,M,,*5F
16:12:26.837 $GPGSA,A,3,22,23,13,14,15,,,,,,,,10.11,6.80,7.47*3B
16:12:26.894 $GPGSV,4,1,14,01,,,41,02,,,30,07,,,37,08,,,19*7F
16:12:26.943 $GPGSV,4,2,14,13,56,261,40,14,82,043,32,15,31,300,41,17,47,168,32*78
16:12:27.018 $GPGSV,4,3,14,19,23,187,31,21,,,25,22,75,262,34,23,05,334,27*4C
16:12:27.083 $GPGSV,4,4,14,30,,,36,46,29,148,36*4B
16:12:27.124 $GPGLL,4915.11724,N,12313.99294,W,001225.00,A,A*7A
16:12:27.640 $GPRMC,001226.00,A,4915.11806,N,12313.99329,W,2.946,340.37,071223,,,A*79
16:12:27.714 $GPVTG,340.37,T,,M,2.946,N,5.456,K,A*35
16:12:27.758 $GPGGA,001226.00,4915.11806,N,12313.99329,W,1,05,6.80,55.7,M,-17.5,M,,*56
16:12:27.836 $GPGSA,A,3,22,23,13,14,15,,,,,,,,10.10,6.80,7.47*3A
16:12:27.892 $GPGSV,4,1,13,01,,,37,07,,,37,08,,,19,13,56,261,47*4F
16:12:27.948 $GPGSV,4,2,13,14,82,043,37,15,31,300,38,17,47,168,32,19,23,187,30*70
16:12:28.020 $GPGSV,4,3,13,21,,,23,22,75,262,41,23,05,334,26,30,,,33*78
16:12:28.082 $GPGSV,4,4,13,46,29,148,35*49
16:12:28.116 $GPGLL,4915.11806,N,12313.99329,W,001226.00,A,A*71
16:12:28.643 $GPRMC,001227.00,A,4915.11892,N,12313.99387,W,2.883,339.89,071223,,,A*72
16:12:28.717 $GPVTG,339.89,T,,M,2.883,N,5.339,K,A*38
16:12:28.761 $GPGGA,001227.00,4915.11892,N,12313.99387,W,1,05,6.80,56.0,M,-17.5,M,,*5A
16:12:28.839 $GPGSA,A,3,22,23,13,14,15,,,,,,,,10.10,6.80,7.47*3A
16:12:28.895 $GPGSV,4,1,14,01,,,25,02,,,28,07,,,41,08,,,17*7B
16:12:28.945 $GPGSV,4,2,14,13,56,261,40,14,82,043,31,15,31,300,39,17,47,168,29*7E
16:12:29.020 $GPGSV,4,3,14,19,23,187,30,21,,,22,22,75,262,32,23,05,334,26*4D
16:12:29.086 $GPGSV,4,4,14,30,,,40,46,29,148,34*48
16:12:29.126 $GPGLL,4915.11892,N,12313.99387,W,001227.00,A,A*79
16:12:29.639 $GPRMC,001228.00,A,4915.11949,N,12313.99438,W,2.706,338.16,071223,,,A*7C
16:12:29.713 $GPVTG,338.16,T,,M,2.706,N,5.011,K,A*34
16:12:29.757 $GPGGA,001228.00,4915.11949,N,12313.99438,W,1,05,6.79,55.9,M,-17.5,M,,*5D
16:12:29.835 $GPGSA,A,3,22,23,13,14,15,,,,,,,,10.09,6.79,7.47*34
16:12:29.891 $GPGSV,4,1,14,01,,,25,02,,,27,07,,,33,08,,,16*70
16:12:29.941 $GPGSV,4,2,14,13,56,261,40,14,82,043,31,15,31,300,36,17,47,168,39*70
16:12:30.016 $GPGSV,4,3,14,19,23,187,34,21,,,19,22,75,262,37,23,05,334,31*42
16:12:30.081 $GPGSV,4,4,14,30,,,42,46,29,148,37*49
16:12:30.122 $GPGLL,4915.11949,N,12313.99438,W,001228.00,A,A*72
16:12:30.640 $GPRMC,001229.00,A,4915.12045,N,12313.99433,W,2.756,345.18,071223,,,A*71
16:12:30.714 $GPVTG,345.18,T,,M,2.756,N,5.105,K,A*31
16:12:30.758 $GPGGA,001229.00,4915.12045,N,12313.99433,W,1,05,6.79,56.1,M,-17.5,M,,*5A
16:12:30.836 $GPGSA,A,3,22,23,13,14,15,,,,,,,,10.09,6.79,7.46*35
16:12:30.892 $GPGSV,4,1,14,01,,,26,02,,,32,07,,,34,08,,,16*70
16:12:30.942 $GPGSV,4,2,14,13,56,261,42,14,82,043,31,15,31,300,41,17,47,168,40*7C
16:12:31.017 $GPGSV,4,3,14,19,23,187,30,21,,,20,22,75,262,38,23,05,334,35*47
16:12:31.083 $GPGSV,4,4,14,30,,,33,46,29,148,39*41
16:12:31.123 $GPGLL,4915.12045,N,12313.99433,W,001229.00,A,A*7E
16:12:31.641 $GPRMC,001230.00,A,4915.12114,N,12313.99472,W,2.802,346.16,071223,,,A*7A
16:12:31.716 $GPVTG,346.16,T,,M,2.802,N,5.189,K,A*36
16:12:31.757 $GPGGA,001230.00,4915.12114,N,12313.99472,W,1,05,6.79,56.1,M,-17.5,M,,*52
16:12:31.834 $GPGSA,A,3,22,23,13,14,15,,,,,,,,10.09,6.79,7.46*35
16:12:31.891 $GPGSV,4,1,14,01,,,26,02,,,23,07,,,29,08,,,16*7C
16:12:31.940 $GPGSV,4,2,14,13,56,261,41,14,82,043,34,15,31,300,43,17,47,168,38*77
16:12:32.015 $GPGSV,4,3,14,19,23,187,31,21,,,19,22,75,262,29,23,05,334,27*4F
16:12:32.081 $GPGSV,4,4,14,30,,,29,46,29,148,36*45
16:12:32.121 $GPGLL,4915.12114,N,12313.99472,W,001230.00,A,A*76
16:12:32.639 $GPRMC,001231.00,A,4915.12204,N,12313.99532,W,2.940,343.67,071223,,,A*78
16:12:32.713 $GPVTG,343.67,T,,M,2.940,N,5.446,K,A*34
16:12:32.757 $GPGGA,001231.00,4915.12204,N,12313.99532,W,1,05,6.79,56.4,M,-17.5,M,,*51
16:12:32.835 $GPGSA,A,3,22,23,13,14,15,,,,,,,,10.08,6.79,7.46*34
16:12:32.891 $GPGSV,4,1,13,01,,,25,07,,,28,08,,,15,13,56,261,42*4B
16:12:32.947 $GPGSV,4,2,13,14,82,043,34,15,31,300,42,17,47,168,37,19,23,187,38*73
16:12:33.019 $GPGSV,4,3,13,21,,,20,22,75,262,37,23,05,334,33,30,,,30*7D
16:12:33.082 $GPGSV,4,4,13,46,29,148,34*48
16:12:33.116 $GPGLL,4915.12204,N,12313.99532,W,001231.00,A,A*70
16:12:33.641 $GPRMC,001232.00,A,4915.12271,N,12313.99564,W,2.851,342.74,071223,,,A*78
16:12:33.713 $GPVTG,342.74,T,,M,2.851,N,5.279,K,A*3C
16:12:33.757 $GPGGA,001232.00,4915.12271,N,12313.99564,W,1,05,6.78,56.3,M,-17.5,M,,*55
16:12:33.835 $GPGSA,A,3,22,23,13,14,15,,,,,,,,10.08,6.78,7.45*36
16:12:33.891 $GPGSV,3,1,12,01,,,24,07,,,27,13,56,261,46,14,82,043,39*79
16:12:33.954 $GPGSV,3,2,12,15,31,300,33,17,47,168,37,19,23,187,31,21,,,21*45
16:12:34.019 $GPGSV,3,3,12,22,75,262,35,23,05,334,32,30,,,28,46,29,148,32*45
16:12:34.088 $GPGLL,4915.12271,N,12313.99564,W,001232.00,A,A*72
16:12:34.641 $GPRMC,001233.00,A,4915.12345,N,12313.99609,W,2.840,340.99,071223,,,A*76
16:12:34.713 $GPVTG,340.99,T,,M,2.840,N,5.259,K,A*3F
16:12:34.757 $GPGGA,001233.00,4915.12345,N,12313.99609,W,1,05,6.78,56.3,M,-17.5,M,,*5A
16:12:34.835 $GPGSA,A,3,22,23,13,14,15,,,,,,,,10.07,6.78,7.45*39
16:12:34.891 $GPGSV,3,1,12,01,,,24,07,,,27,13,56,261,46,14,82,043,39*79
16:12:34.954 $GPGSV,3,2,12,15,31,300,43,17,47,168,40,19,23,187,31,21,,,21*42
16:12:35.019 $GPGSV,3,3,12,22,75,262,41,23,05,334,28,30,,,32,46,29,148,31*45
16:12:35.088 $GPGLL,4915.12345,N,12313.99609,W,001233.00,A,A*7D
16:12:35.645 $GPRMC,001234.00,A,4915.12436,N,12313.99673,W,2.928,339.35,071223,,,A*78
16:12:35.718 $GPVTG,339.35,T,,M,2.928,N,5.423,K,A*33
16:12:35.762 $GPGGA,001234.00,4915.12436,N,12313.99673,W,1,05,6.78,56.8,M,-17.5,M,,*58
16:12:35.840 $GPGSA,A,3,22,23,13,14,15,,,,,,,,10.07,6.78,7.45*39
16:12:35.896 $GPGSV,3,1,12,01,,,24,07,,,27,13,56,261,42,14,82,043,34*70
16:12:35.958 $GPGSV,3,2,12,15,31,300,44,17,47,168,34,19,23,187,30,21,,,21*47
16:12:36.024 $GPGSV,3,3,12,22,75,262,38,23,05,334,26,30,,,28,46,29,148,40*48
16:12:36.092 $GPGLL,4915.12436,N,12313.99673,W,001234.00,A,A*74
16:12:36.645 $GPRMC,001235.00,A,4915.12500,N,12313.99738,W,2.714,335.62,071223,,,A*7C
16:12:36.719 $GPVTG,335.62,T,,M,2.714,N,5.026,K,A*3D
16:12:36.763 $GPGGA,001235.00,4915.12500,N,12313.99738,W,1,05,6.77,57.0,M,-17.5,M,,*55
16:12:36.841 $GPGSA,A,3,22,23,13,14,15,,,,,,,,10.06,6.77,7.44*36
16:12:36.897 $GPGSV,3,1,12,01,,,25,07,,,26,13,56,261,44,14,82,043,33*71
16:12:36.959 $GPGSV,3,2,12,15,31,300,40,17,47,168,36,19,23,187,34,21,,,21*45
16:12:37.025 $GPGSV,3,3,12,22,75,262,35,23,05,334,31,30,,,28,46,29,148,31*45
16:12:37.093 $GPGLL,4915.12500,N,12313.99738,W,001235.00,A,A*7F
16:12:37.641 $GPRMC,001236.00,A,4915.12599,N,12313.99802,W,2.835,335.65,071223,,,A*72
16:12:37.715 $GPVTG,335.65,T,,M,2.835,N,5.251,K,A*34
16:12:37.758 $GPGGA,001236.00,4915.12599,N,12313.99802,W,1,05,6.77,57.7,M,-17.5,M,,*57
16:12:37.836 $GPGSA,A,3,22,23,13,14,15,,,,,,,,10.06,6.77,7.44*36
16:12:37.893 $GPGSV,3,1,12,01,,,25,07,,,27,13,56,261,45,14,82,043,30*72
16:12:37.955 $GPGSV,3,2,12,15,31,300,43,17,47,168,30,19,23,187,31,21,,,20*44
16:12:38.021 $GPGSV,3,3,12,22,75,262,39,23,05,334,35,30,,,33,46,29,148,27*40
16:12:38.089 $GPGLL,4915.12599,N,12313.99802,W,001236.00,A,A*7A
16:12:38.645 $GPRMC,001237.00,A,4915.12726,N,12313.99888,W,3.208,337.16,071223,,,A*74
16:12:38.718 $GPVTG,337.16,T,,M,3.208,N,5.940,K,A*3C
16:12:38.762 $GPGGA,001237.00,4915.12726,N,12313.99888,W,1,05,6.77,58.9,M,-17.5,M,,*53
16:12:38.840 $GPGSA,A,3,22,23,13,14,15,,,,,,,,10.06,6.77,7.44*36
16:12:38.896 $GPGSV,3,1,11,01,,,24,13,56,261,48,14,82,043,30,15,31,300,40*4E
16:12:38.962 $GPGSV,3,2,11,17,47,168,37,19,23,187,31,21,,,21,22,75,262,41*42
16:12:39.031 $GPGSV,3,3,11,23,05,334,32,30,,,27,46,29,148,28*70
16:12:39.083 $GPGLL,4915.12726,N,12313.99888,W,001237.00,A,A*7F
16:12:39.642 $GPRMC,001238.00,A,4915.12801,N,12313.99867,W,2.684,342.62,071223,,,A*70
16:12:39.716 $GPVTG,342.62,T,,M,2.684,N,4.971,K,A*3F
16:12:39.760 $GPGGA,001238.00,4915.12801,N,12313.99867,W,1,05,6.77,58.9,M,-17.5,M,,*57
16:12:39.838 $GPGSA,A,3,22,23,13,14,15,,,,,,,,10.05,6.77,7.43*32
16:12:39.894 $GPGSV,3,1,11,01,,,25,13,56,261,36,14,82,043,39,15,31,300,36*4E
16:12:39.959 $GPGSV,3,2,11,17,47,168,39,19,23,187,30,21,,,21,22,75,262,34*4F
16:12:40.028 $GPGSV,3,3,11,23,05,334,26,30,,,28,46,29,148,28*7A
16:12:40.081 $GPGLL,4915.12801,N,12313.99867,W,001238.00,A,A*7B
16:12:40.643 $GPRMC,001239.00,A,4915.12875,N,12313.99871,W,2.680,348.56,071223,,,A*7C
16:12:40.715 $GPVTG,348.56,T,,M,2.680,N,4.964,K,A*32
16:12:40.759 $GPGGA,001239.00,4915.12875,N,12313.99871,W,1,05,6.76,59.0,M,-17.5,M,,*5B
16:12:40.837 $GPGSA,A,3,22,23,13,14,15,,,,,,,,10.05,6.76,7.43*33
16:12:40.893 $GPGSV,3,1,11,01,,,24,13,56,261,38,14,82,043,35,15,31,300,37*4C
16:12:40.958 $GPGSV,3,2,11,17,47,168,31,19,23,187,33,21,,,21,22,75,262,41*46
16:12:41.027 $GPGSV,3,3,11,23,05,334,29,30,,,19,46,29,148,27*78
16:12:41.080 $GPGLL,4915.12875,N,12313.99871,W,001239.00,A,A*7E
16:12:41.646 $GPRMC,001240.00,A,4915.12975,N,12313.99939,W,2.762,346.44,071223,,,A*7E
16:12:41.719 $GPVTG,346.44,T,,M,2.762,N,5.115,K,A*3D
16:12:41.762 $GPGGA,001240.00,4915.12975,N,12313.99939,W,1,05,6.76,59.9,M,-17.5,M,,*50
16:12:41.840 $GPGSA,A,3,22,23,13,14,15,,,,,,,,10.04,6.76,7.43*32
16:12:41.897 $GPGSV,3,1,11,01,,,22,13,56,261,47,14,82,043,35,15,31,300,39*4C
16:12:41.962 $GPGSV,3,2,11,17,47,168,35,19,23,187,34,21,,,21,22,75,262,32*41
16:12:42.032 $GPGSV,3,3,11,23,05,334,29,30,,,28,46,29,148,36*7A
16:12:42.084 $GPGLL,4915.12975,N,12313.99939,W,001240.00,A,A*7C
16:12:42.642 $GPRMC,001241.00,A,4915.13077,N,12314.00010,W,3.017,343.65,071223,,,A*72
16:12:42.716 $GPVTG,343.65,T,,M,3.017,N,5.587,K,A*30
16:12:42.760 $GPGGA,001241.00,4915.13077,N,12314.00010,W,1,05,6.76,60.6,M,-17.5,M,,*5B
16:12:42.838 $GPGSA,A,3,22,23,13,14,15,,,,,,,,10.04,6.76,7.43*32
16:12:42.894 $GPGSV,3,1,11,01,,,21,13,56,261,41,14,82,043,35,15,31,300,40*47
16:12:42.960 $GPGSV,3,2,11,17,47,168,34,19,23,187,23,21,,,20,22,75,262,35*40
16:12:43.029 $GPGSV,3,3,11,23,05,334,29,30,,,27,46,29,148,31*72
16:12:43.082 $GPGLL,4915.13077,N,12314.00010,W,001241.00,A,A*72
16:12:43.643 $GPRMC,001242.00,A,4915.13110,N,12314.00043,W,2.619,341.11,071223,,,A*7F
16:12:43.717 $GPVTG,341.11,T,,M,2.619,N,4.850,K,A*3E
16:12:43.761 $GPGGA,001242.00,4915.13110,N,12314.00043,W,1,05,6.76,60.0,M,-17.5,M,,*58
16:12:43.839 $GPGSA,A,3,22,23,13,14,15,,,,,,,,10.04,6.76,7.42*33
16:12:43.895 $GPGSV,3,1,11,01,,,20,13,56,261,43,14,82,043,28,15,31,300,37*48
16:12:43.960 $GPGSV,3,2,11,17,47,168,37,19,23,187,34,21,,,18,22,75,262,33*48
16:12:44.029 $GPGSV,3,3,11,23,05,334,32,30,,,28,46,29,148,31*77
16:12:44.082 $GPGLL,4915.13110,N,12314.00043,W,001242.00,A,A*77
16:12:44.648 $GPRMC,001243.00,A,4915.13200,N,12314.00100,W,2.415,340.76,071223,,,A*74
16:12:44.722 $GPVTG,340.76,T,,M,2.415,N,4.472,K,A*3C
16:12:44.765 $GPGGA,001243.00,4915.13200,N,12314.00100,W,1,05,6.75,61.1,M,-17.5,M,,*5E
16:12:44.844 $GPGSA,A,3,22,23,13,14,15,,,,,,,,10.03,6.75,7.42*37
16:12:44.900 $GPGSV,3,1,11,01,,,20,13,56,261,39,14,82,043,33,15,31,300,38*40
16:12:44.965 $GPGSV,3,2,11,17,47,168,36,19,23,187,34,21,,,26,22,75,262,36*41
16:12:45.034 $GPGSV,3,3,11,23,05,334,26,30,,,28,46,29,148,38*7B
16:12:45.087 $GPGLL,4915.13200,N,12314.00100,W,001243.00,A,A*72
16:13:25.566 $GPRMC,001244.00,A,4915.132$GPRMC,001324.00,A,4915.16802,N,12314.02640,W,3.408,337.99,071223,,,A*74
16:13:25.718 $GPVTG,337.99,T,,M,3.408,N,6.312,K,A*33
16:13:25.762 $GPGGA,001324.00,4915.16802,N,12314.02640,W,1,05,6.64,78.0,M,-17.5,M,,*5B
16:13:25.839 $GPGSA,A,3,22,23,13,14,15,,,,,,,,9.86,6.64,7.29*0F
16:13:25.892 $GPGSV,4,1,13,01,,,27,02,,,27,07,,,27,13,56,259,43*47
16:13:25.952 $GPGSV,4,2,13,14,82,045,37,15,31,300,33,17,48,168,37,19,23,187,27*71
16:13:26.023 $GPGSV,4,3,13,21,,,34,22,76,263,40,23,05,333,26,30,,,31*78
16:13:26.086 $GPGSV,4,4,13,46,29,148,30*4C
16:13:26.117 $GPGLL,4915.16802,N,12314.02640,W,001324.00,A,A*7E
16:13:26.642 $GPRMC,001325.00,A,4915.16904,N,12314.02697,W,3.529,339.82,071223,,,A*7E
16:13:26.717 $GPVTG,339.82,T,,M,3.529,N,6.535,K,A*36
16:13:26.761 $GPGGA,001325.00,4915.16904,N,12314.02697,W,1,05,6.64,78.5,M,-17.5,M,,*52
16:13:26.839 $GPGSA,A,3,22,23,13,14,15,,,,,,,,9.86,6.64,7.29*0F
16:13:26.892 $GPGSV,4,1,13,01,,,29,02,,,38,07,,,26,13,56,259,40*45
16:13:26.951 $GPGSV,4,2,13,14,82,045,41,15,31,300,38,17,48,168,34,19,23,187,32*7C
16:13:27.023 $GPGSV,4,3,13,21,,,30,22,76,263,36,23,05,333,26,30,,,31*7D
16:13:27.085 $GPGSV,4,4,13,46,29,148,33*4F
16:13:27.116 $GPGLL,4915.16904,N,12314.02697,W,001325.00,A,A*72
16:13:27.645 $GPRMC,001326.00,A,4915.16995,N,12314.02740,W,3.563,340.56,071223,,,A*77
16:13:27.719 $GPVTG,340.56,T,,M,3.563,N,6.598,K,A*38
16:13:27.763 $GPGGA,001326.00,4915.16995,N,12314.02740,W,1,05,6.63,78.5,M,-17.5,M,,*55
16:13:27.841 $GPGSA,A,3,22,23,13,14,15,,,,,,,,9.85,6.63,7.29*0B
16:13:27.894 $GPGSV,4,1,13,01,,,19,02,,,31,07,,,26,13,56,259,36*4E
16:13:27.953 $GPGSV,4,2,13,14,82,045,39,15,31,300,42,17,48,168,25,19,23,187,32*7E
16:13:28.026 $GPGSV,4,3,13,21,,,31,22,76,263,33,23,05,333,25,30,,,32*79
16:13:28.088 $GPGSV,4,4,13,46,29,148,31*4D
16:13:28.119 $GPGLL,4915.16995,N,12314.02740,W,001326.00,A,A*72
16:13:28.644 $GPRMC,001327.00,A,4915.17111,N,12314.02812,W,3.673,340.45,071223,,,A*7B
16:13:28.718 $GPVTG,340.45,T,,M,3.673,N,6.803,K,A*37
16:13:28.762 $GPGGA,001327.00,4915.17111,N,12314.02812,W,1,05,6.63,79.4,M,-17.5,M,,*59
16:13:28.839 $GPGSA,A,3,22,23,13,14,15,,,,,,,,9.85,6.63,7.28*0A
16:13:28.892 $GPGSV,4,1,13,01,,,23,02,,,31,07,,,25,13,56,259,45*40
16:13:28.954 $GPGSV,4,2,13,14,82,045,40,15,31,300,43,17,48,168,31,19,23,187,32*74
16:13:29.023 $GPGSV,4,3,13,21,,,31,22,76,263,40,23,05,333,23,30,,,27*7F
16:13:29.086 $GPGSV,4,4,13,46,29,148,35*49
16:13:29.117 $GPGLL,4915.17111,N,12314.02812,W,001327.00,A,A*7E
16:13:29.643 $GPRMC,001328.00,A,4915.17164,N,12314.02860,W,3.473,337.64,071223,,,A*72
16:13:29.718 $GPVTG,337.64,T,,M,3.473,N,6.433,K,A*39
16:13:29.761 $GPGGA,001328.00,4915.17164,N,12314.02860,W,1,05,6.63,78.9,M,-17.5,M,,*5D
16:13:29.839 $GPGSA,A,3,22,23,13,14,15,,,,,,,,9.85,6.63,7.28*0A
16:13:29.892 $GPGSV,4,1,13,01,,,30,02,,,31,07,,,26,13,56,259,44*40
16:13:29.951 $GPGSV,4,2,13,14,82,045,38,15,31,300,40,17,48,168,32,19,23,187,33*7A
16:13:30.023 $GPGSV,4,3,13,21,,,26,22,76,263,38,23,05,333,22,30,,,31*70
16:13:30.086 $GPGSV,4,4,13,46,29,148,37*4B
16:13:30.117 $GPGLL,4915.17164,N,12314.02860,W,001328.00,A,A*76
16:13:30.645 $GPRMC,001329.00,A,4915.17254,N,12314.02917,W,3.376,337.79,071223,,,A*7C
16:13:30.717 $GPVTG,337.79,T,,M,3.376,N,6.252,K,A*36
16:13:30.761 $GPGGA,001329.00,4915.17254,N,12314.02917,W,1,05,6.63,79.4,M,-17.5,M,,*51
16:13:30.839 $GPGSA,A,3,22,23,13,14,15,,,,,,,,9.84,6.63,7.28*0B
16:13:30.892 $GPGSV,4,1,13,01,,,31,02,,,32,07,,,26,13,56,259,46*40
16:13:30.951 $GPGSV,4,2,13,14,82,045,42,15,31,300,41,17,48,168,28,19,23,187,30*7E
16:13:31.023 $GPGSV,4,3,13,21,,,30,22,76,263,35,23,05,333,23,30,,,31*7B
16:13:31.085 $GPGSV,4,4,13,46,29,148,32*4E
16:13:31.116 $GPGLL,4915.17254,N,12314.02917,W,001329.00,A,A*76
16:13:31.640 $GPRMC,001330.00,V,,,,,,,071223,,,N*79
16:13:31.679 $GPVTG,,,,,,,,,N*30
16:13:31.701 $GPGGA,001330.00,,,,,0,04,14.30,,,,,,*65
16:13:31.746 $GPGSA,A,1,22,13,14,15,,,,,,,,,26.30,14.30,22.07*35
16:13:31.801 $GPGSV,4,1,13,01,,,26,02,,,36,07,,,26,13,56,259,42*46
16:13:31.857 $GPGSV,4,2,13,14,82,045,42,15,31,300,42,17,48,168,33,19,23,187,31*76
16:13:31.929 $GPGSV,4,3,13,21,,,31,22,76,263,25,23,05,333,,30,,,26*7C
16:13:31.991 $GPGSV,4,4,13,46,29,148,34*48
16:13:32.023 $GPGLL,,,,,001330.00,V,N*4B
16:13:32.644 $GPRMC,001331.00,V,,,,,,,071223,,,N*78
16:13:32.682 $GPVTG,,,,,,,,,N*30
16:13:32.703 $GPGGA,001331.00,,,,,0,05,14.28,,,,,,*6C
16:13:32.750 $GPGSA,A,1,22,23,13,14,15,,,,,,,,26.25,14.28,22.03*3D
16:13:32.804 $GPGSV,4,1,13,01,,,32,02,,,25,07,,,26,13,56,259,42*41
16:13:32.863 $GPGSV,4,2,13,14,82,045,41,15,31,300,40,17,48,168,35,19,23,187,33*73
16:13:32.934 $GPGSV,4,3,13,21,,,32,22,76,263,40,23,05,333,25,30,,,27*7A
16:13:32.997 $GPGSV,4,4,13,46,29,148,31*4D
16:13:33.028 $GPGLL,,,,,001331.00,V,N*4A
16:13:33.646 $GPRMC,001332.00,A,4915.17512,N,12314.03082,W,3.110,339.48,071223,,,A*79
16:13:33.719 $GPVTG,339.48,T,,M,3.110,N,5.760,K,A*3F
16:13:33.762 $GPGGA,001332.00,4915.17512,N,12314.03082,W,1,05,6.62,80.5,M,-17.5,M,,*5C
16:13:33.841 $GPGSA,A,3,22,23,13,14,15,,,,,,,,9.83,6.62,7.27*02
16:13:33.893 $GPGSV,4,1,13,01,,,32,02,,,33,07,,,26,13,56,259,49*4D
16:13:33.953 $GPGSV,4,2,13,14,82,045,38,15,31,300,36,17,48,168,31,19,23,187,33*78
16:13:34.025 $GPGSV,4,3,13,21,,,27,22,76,263,36,23,05,333,26,30,,,35*7F
16:13:34.087 $GPGSV,4,4,13,46,29,148,32*4E
16:13:34.118 $GPGLL,4915.17512,N,12314.03082,W,001332.00,A,A*7D
16:13:34.644 $GPRMC,001333.00,A,4915.17614,N,12314.03184,W,3.059,334.16,071223,,,A*70
16:13:34.718 $GPVTG,334.16,T,,M,3.059,N,5.664,K,A*30
16:13:34.762 $GPGGA,001333.00,4915.17614,N,12314.03184,W,1,05,6.62,81.9,M,-17.5,M,,*52
16:13:34.840 $GPGSA,A,3,22,23,13,14,15,,,,,,,,9.83,6.62,7.26*03
16:13:34.893 $GPGSV,4,1,13,01,,,31,02,,,34,07,,,25,13,56,259,45*46
16:13:34.952 $GPGSV,4,2,13,14,82,045,41,15,31,300,38,17,48,168,34,19,23,187,31*7F
16:13:35.027 $GPGSV,4,3,13,21,,,32,22,76,263,37,23,05,333,24,30,,,31*7C
16:13:35.086 $GPGSV,4,4,13,46,29,148,34*48
16:13:35.118 $GPGLL,4915.17614,N,12314.03184,W,001333.00,A,A*7E
16:13:38.082 $GPRMC,001334.00,V,,,,,,,07$GPRMC,001337.00,V,,,,,,,071223,,,N*7E
16:13:38.684 $GPVTG,,,,,,,,,N*30
16:13:38.706 $GPGGA,001337.00,,,,,0,05,14.13,,,,,,*62
16:13:38.749 $GPGSA,A,1,22,23,13,14,15,,,,,,,,25.99,14.13,21.81*38
16:13:38.806 $GPGSV,4,1,13,01,,,32,02,,,29,07,,,30,13,56,259,47*4F
16:13:38.865 $GPGSV,4,2,13,14,82,045,41,15,31,300,43,17,48,168,34,19,23,187,30*72
16:13:38.936 $GPGSV,4,3,13,21,,,27,22,76,263,40,23,05,333,22,30,,,29*77
16:13:38.999 $GPGSV,4,4,13,46,29,148,29*44
16:13:39.030 $GPGLL,,,,,001337.00,V,N*4C
16:13:39.645 $GPRMC,001338.00,V,,,,,,,071223,,,N*71
16:13:39.685 $GPVTG,,,,,,,,,N*30
16:13:39.707 $GPGGA,001338.00,,,,,0,05,14.11,,,,,,*6F
16:13:39.751 $GPGSA,A,1,22,23,13,14,15,,,,,,,,25.95,14.11,21.78*30
16:13:39.807 $GPGSV,4,1,13,01,,,29,02,,,33,07,,,22,13,56,259,39*44
16:13:39.866 $GPGSV,4,2,13,14,82,045,37,15,31,300,45,17,48,168,35,19,23,187,30*74
16:13:39.938 $GPGSV,4,3,13,21,,,31,22,76,263,34,23,05,333,23,30,,,30*7A
16:13:40.000 $GPGSV,4,4,13,46,29,148,34*48
16:13:40.031 $GPGLL,,,,,001338.00,V,N*43
16:13:40.646 $GPRMC,001339.00,V,,,,,,,071223,,,N*70
16:13:40.685 $GPVTG,,,,,,,,,N*30
16:13:40.707 $GPGGA,001339.00,,,,,0,05,14.08,,,,,,*66
16:13:40.751 $GPGSA,A,1,22,23,13,14,15,,,,,,,,25.90,14.08,21.74*31
16:13:40.807 $GPGSV,4,1,13,01,,,29,02,,,22,07,,,25,13,56,259,36*4C
16:13:40.866 $GPGSV,4,2,13,14,82,045,40,15,31,300,43,17,48,168,35,19,23,187,34*76
16:13:40.938 $GPGSV,4,3,13,21,,,38,22,76,263,36,23,05,333,21,30,,,32*71
16:13:41.001 $GPGSV,4,4,13,46,29,148,29*44
16:13:41.032 $GPGLL,,,,,001339.00,V,N*42
16:13:41.649 $GPRMC,001340.00,A,4915.18205,N,12314.03703,W,3.459,334.49,071223,,,A*78
16:13:41.721 $GPVTG,334.49,T,,M,3.459,N,6.406,K,A*3B
16:13:41.764 $GPGGA,001340.00,4915.18205,N,12314.03703,W,1,05,6.60,84.3,M,-17.5,M,,*59
16:13:41.843 $GPGSA,A,3,22,23,13,14,15,,,,,,,,9.80,6.60,7.24*00
16:13:41.895 $GPGSV,4,1,14,01,,,27,02,,,36,07,,,26,13,56,259,46*44
16:13:41.955 $GPGSV,4,2,14,14,82,045,43,15,31,300,40,17,48,168,31,19,23,187,32*73
16:13:42.026 $GPGSV,4,3,14,21,,,37,22,76,263,40,23,05,333,20,24,,,22*7D
16:13:42.089 $GPGSV,4,4,14,30,,,38,46,29,148,33*40
16:13:42.129 $GPGLL,4915.18205,N,12314.03703,W,001340.00,A,A*78
16:13:42.650 $GPRMC,001341.00,A,4915.18291,N,12314.03760,W,3.440,335.24,071223,,,A*73
16:13:42.723 $GPVTG,335.24,T,,M,3.440,N,6.371,K,A*3E
16:13:42.767 $GPGGA,001341.00,4915.18291,N,12314.03760,W,1,05,6.59,84.5,M,-17.5,M,,*5C
16:13:42.845 $GPGSA,A,3,22,23,13,14,15,,,,,,,,9.79,6.59,7.24*0C
16:13:42.898 $GPGSV,4,1,13,01,,,25,02,,,32,07,,,27,13,56,259,27*43
16:13:42.957 $GPGSV,4,2,13,14,82,045,43,15,31,300,40,17,48,168,32,19,23,187,32*77
16:13:43.029 $GPGSV,4,3,13,21,,,38,22,76,263,36,23,05,333,19,30,,,26*7F
16:13:43.092 $GPGSV,4,4,13,46,29,148,28*45
16:13:43.123 $GPGLL,4915.18291,N,12314.03760,W,001341.00,A,A*71
16:13:43.646 $GPRMC,001342.00,V,,,,,,,071223,,,N*7C
16:13:43.684 $GPVTG,,,,,,,,,N*30
16:13:43.706 $GPGGA,001342.00,,,,,0,05,14.01,,,,,,*63
16:13:43.749 $GPGSA,A,1,22,23,13,14,15,,,,,,,,25.77,14.01,21.63*37
16:13:43.805 $GPGSV,4,1,13,01,,,27,02,,,28,07,,,26,13,56,259,37*4A
16:13:43.865 $GPGSV,4,2,13,14,82,045,44,15,31,300,46,17,48,168,27,19,23,187,32*72
16:13:43.938 $GPGSV,4,3,13,21,,,29,22,76,263,33,23,05,333,26,30,,,26*76
16:13:43.999 $GPGSV,4,4,13,46,29,148,31*4D
16:13:44.030 $GPGLL,,,,,001342.00,V,N*4E
16:13:44.657 $GPRMC,001343.00,A,4915.18467,N,12314.03878,W,3.400,335.91,071223,,,A*72
16:13:44.729 $GPVTG,335.91,T,,M,3.400,N,6.297,K,A*3D
16:13:44.773 $GPGGA,001343.00,4915.18467,N,12314.03878,W,1,05,6.59,85.0,M,-17.5,M,,*53
16:13:44.851 $GPGSA,A,3,22,23,13,14,15,,,,,,,,9.78,6.59,7.23*0A
16:13:44.904 $GPGSV,4,1,13,01,,,26,02,,,33,07,,,26,13,56,259,46*47
16:13:44.963 $GPGSV,4,2,13,14,82,045,39,15,31,300,40,17,48,168,32,19,23,187,28*71
16:13:45.035 $GPGSV,4,3,13,21,,,30,22,76,263,33,23,05,333,25,30,,,31*7B
16:13:45.098 $GPGSV,4,4,13,46,29,148,34*48
16:13:45.129 $GPGLL,4915.18467,N,12314.03878,W,001343.00,A,A*7A
16:13:58.074 $GPRMC,001344.00,A,4915.185$GPRMC,001357.00,V,,,,,,,071223,,,N*78
16:13:58.683 $GPVTG,,,,,,,,,N*30
16:13:58.705 $GPGGA,001357.00,,,,,0,04,13.67,,,,,,*61
16:13:58.749 $GPGSA,A,1,22,13,14,15,,,,,,,,,25.15,13.67,21.11*30
16:13:58.805 $GPGSV,4,1,13,01,,,28,02,,,28,07,,,32,08,,,32*72
16:13:58.855 $GPGSV,4,2,13,13,56,259,42,14,82,045,37,15,31,300,42,17,48,168,27*7D
16:13:58.930 $GPGSV,4,3,13,19,23,187,29,21,,,39,22,76,263,36,23,05,333,*4D
16:13:58.996 $GPGSV,4,4,13,30,,,37*7C
16:13:59.021 $GPGLL,,,,,001357.00,V,N*4A
16:13:59.643 $GPRMC,001358.00,V,,,,,,,071223,,,N*77
16:13:59.683 $GPVTG,,,,,,,,,N*30
16:13:59.705 $GPGGA,001358.00,,,,,0,04,13.64,,,,,,*6D
16:13:59.749 $GPGSA,A,1,22,13,14,15,,,,,,,,,25.11,13.64,21.08*3F
16:13:59.805 $GPGSV,4,1,13,01,,,32,02,,,32,07,,,38,08,,,31*7B
16:13:59.855 $GPGSV,4,2,13,13,56,259,40,14,82,045,37,15,31,300,39,17,48,168,32*77
16:13:59.930 $GPGSV,4,3,13,19,23,187,29,21,,,34,22,76,263,36,23,05,333,*40
16:13:59.995 $GPGSV,4,4,13,30,,,37*7C
16:14:00.020 $GPGLL,,,,,001358.00,V,N*45
16:14:00.646 $GPRMC,001359.00,V,,,,,,,071223,,,N*76
16:14:00.687 $GPVTG,,,,,,,,,N*30
16:14:00.708 $GPGGA,001359.00,,,,,0,05,13.62,,,,,,*6B
16:14:00.752 $GPGSA,A,1,22,23,13,14,15,,,,,,,,25.07,13.62,21.05*32
16:14:00.808 $GPGSV,4,1,13,01,,,27,02,,,41,07,,,39,08,,,25*7F
16:14:00.861 $GPGSV,4,2,13,13,56,259,39,14,82,045,36,15,31,300,30,17,48,168,25*77
16:14:00.933 $GPGSV,4,3,13,19,23,187,33,21,,,37,22,76,263,35,23,05,333,24*4D
16:14:01.001 $GPGSV,4,4,13,30,,,35*7E
16:14:01.029 $GPGLL,,,,,001359.00,V,N*44
16:14:01.645 $GPRMC,001400.00,A,4915.19619,N,12314.04777,W,3.597,334.02,071223,,,A*7B
16:14:01.719 $GPVTG,334.02,T,,M,3.597,N,6.662,K,A*37
16:14:01.762 $GPGGA,001400.00,4915.19619,N,12314.04777,W,1,05,6.54,84.4,M,-17.5,M,,*56
16:14:01.840 $GPGSA,A,3,22,23,13,14,15,,,,,,,,9.71,6.54,7.18*06
16:14:01.893 $GPGSV,4,1,13,01,,,29,02,,,41,07,,,38,08,,,25*70
16:14:01.946 $GPGSV,4,2,13,13,56,259,40,14,82,045,38,15,31,300,35,17,48,168,29*7E
16:14:02.018 $GPGSV,4,3,13,19,23,187,32,21,,,35,22,76,263,35,23,05,333,23*49
16:14:02.087 $GPGSV,4,4,13,30,,,37*7C
16:14:02.115 $GPGLL,4915.19619,N,12314.04777,W,001400.00,A,A*77
16:14:02.647 $GPRMC,001401.00,A,4915.19683,N,12314.04819,W,3.102,335.66,071223,,,A*75
16:14:02.720 $GPVTG,335.66,T,,M,3.102,N,5.744,K,A*3A
16:14:02.765 $GPGGA,001401.00,4915.19683,N,12314.04819,W,1,05,13.58,84.5,M,-17.5,M,,*6A
16:14:02.842 $GPGSA,A,3,22,23,13,14,15,,,,,,,,24.99,13.58,20.98*3A
16:14:02.901 $GPGSV,4,1,13,01,,,34,02,,,40,07,,,30,08,,,25*75
16:14:02.951 $GPGSV,4,2,13,13,56,259,33,14,82,045,38,15,31,300,37,17,48,168,29*78
16:14:03.026 $GPGSV,4,3,13,19,23,187,27,21,,,35,22,76,263,32,23,05,333,23*4A
16:14:03.091 $GPGSV,4,4,13,30,,,37*7C
16:14:03.119 $GPGLL,4915.19683,N,12314.04819,W,001401.00,A,A*72
16:14:03.643 $GPRMC,001402.00,A,4915.19772,N,12314.04863,W,3.159,338.88,071223,,,A*77
16:14:03.715 $GPVTG,338.88,T,,M,3.159,N,5.851,K,A*32
16:14:03.758 $GPGGA,001402.00,4915.19772,N,12314.04863,W,1,04,13.55,84.7,M,-17.5,M,,*65
16:14:03.836 $GPGSA,A,3,22,13,14,15,,,,,,,,,24.95,13.55,20.95*37
16:14:03.892 $GPGSV,4,1,13,01,,,36,02,,,30,07,,,30,08,,,26*73
16:14:03.946 $GPGSV,4,2,13,13,56,259,34,14,82,045,41,15,31,300,48,17,48,168,21*71
16:14:04.018 $GPGSV,4,3,13,19,23,187,35,21,,,31,22,76,263,31,23,05,333,*4F
16:14:04.085 $GPGSV,4,4,13,30,,,37*7C
16:14:04.111 $GPGLL,4915.19772,N,12314.04863,W,001402.00,A,A*73
16:14:04.644 $GPRMC,001403.00,A,4915.19849,N,12314.04915,W,3.103,338.95,071223,,,A*72
16:14:04.718 $GPVTG,338.95,T,,M,3.103,N,5.747,K,A*39
16:14:04.761 $GPGGA,001403.00,4915.19849,N,12314.04915,W,1,04,13.53,85.1,M,-17.5,M,,*62
16:14:04.840 $GPGSA,A,3,22,13,14,15,,,,,,,,,24.91,13.53,20.91*31
16:14:04.896 $GPGSV,4,1,13,01,,,31,02,,,31,07,,,31,08,,,25*77
16:14:04.949 $GPGSV,4,2,13,13,56,259,35,14,82,045,37,15,31,300,41,17,48,168,30*78
16:14:05.020 $GPGSV,4,3,13,19,23,187,32,21,,,32,22,76,263,32,23,05,333,*48
16:14:05.086 $GPGSV,4,4,13,30,,,32*79
16:14:05.115 $GPGLL,4915.19849,N,12314.04915,W,001403.00,A,A*75
16:14:05.641 $GPRMC,001404.00,A,4915.19948,N,12314.04993,W,3.366,335.89,071223,,,A*7A
16:14:05.715 $GPVTG,335.89,T,,M,3.366,N,6.234,K,A*3A
16:14:05.758 $GPGGA,001404.00,4915.19948,N,12314.04993,W,1,04,13.51,85.7,M,-17.5,M,,*6F
16:14:05.836 $GPGSA,A,3,22,13,14,15,,,,,,,,,24.87,13.51,20.88*3C
16:14:05.892 $GPGSV,4,1,13,01,,,35,02,,,31,07,,,27,08,,,25*74
16:14:05.945 $GPGSV,4,2,13,13,56,259,45,14,82,045,40,15,31,300,42,17,48,168,34*78
16:14:06.017 $GPGSV,4,3,13,19,23,187,35,21,,,36,22,76,263,35,23,05,333,*4C
16:14:06.083 $GPGSV,4,4,13,30,,,38*73
16:14:06.111 $GPGLL,4915.19948,N,12314.04993,W,001404.00,A,A*7C
16:14:06.645 $GPRMC,001405.00,A,4915.20031,N,12314.05048,W,3.320,335.28,071223,,,A*71
16:14:06.717 $GPVTG,335.28,T,,M,3.320,N,6.149,K,A*3A
16:14:06.760 $GPGGA,001405.00,4915.20031,N,12314.05048,W,1,05,13.49,85.8,M,-17.5,M,,*6A
16:14:06.838 $GPGSA,A,3,22,23,13,14,15,,,,,,,,24.83,13.49,20.85*3D
16:14:06.898 $GPGSV,4,1,13,01,,,31,02,,,35,07,,,27,08,,,25*74
16:14:06.948 $GPGSV,4,2,13,13,56,259,40,14,82,045,40,15,31,300,41,17,48,168,34*7E
16:14:07.023 $GPGSV,4,3,13,19,23,187,31,21,,,31,22,76,263,36,23,05,333,25*4B
16:14:07.088 $GPGSV,4,4,13,30,,,40*7C
16:14:07.116 $GPGLL,4915.20031,N,12314.05048,W,001405.00,A,A*7E
16:14:07.642 $GPRMC,001406.00,A,4915.20107,N,12314.05111,W,3.342,334.43,071223,,,A*73
16:14:07.714 $GPVTG,334.43,T,,M,3.342,N,6.189,K,A*3E
16:14:07.757 $GPGGA,001406.00,4915.20107,N,12314.05111,W,1,05,13.47,86.0,M,-17.5,M,,*65
16:14:07.835 $GPGSA,A,3,22,23,13,14,15,,,,,,,,24.79,13.47,20.82*31
16:14:07.895 $GPGSV,4,1,13,01,,,23,02,,,31,07,,,32,08,,,25*77
16:14:07.945 $GPGSV,4,2,13,13,56,259,34,14,82,045,39,15,31,300,37,17,48,168,29*7E
16:14:08.019 $GPGSV,4,3,13,19,23,187,30,21,,,26,22,76,263,33,23,05,333,23*4F
16:14:08.085 $GPGSV,4,4,13,30,,,36*7D
16:14:10.857 $GPGLL,4915.20,23,13,14,15,,,,,,,,24.68,13.40,20.72*39
16:14:10.901 $GPGSV,4,1,13,01,,,25,02,,,25,07,,,28,08,,,24*7E
16:14:10.951 $GPGSV,4,2,13,13,56,259,33,14,82,045,37,15,31,300,35,17,48,168,29*75
16:14:11.026 $GPGSV,4,3,13,19,23,187,27,21,,,25,22,76,263,36,23,05,333,23*4F
16:14:11.092 $GPGSV,4,4,13,30,,,32*79
16:14:11.120 $GPGLL,4915.20223,N,12314.05295,W,001409.00,A,A*71
16:14:11.645 $GPRMC,001410.00,A,4915.20278,N,12314.05358,W,2.620,324.56,071223,,,A*75
16:14:11.719 $GPVTG,324.56,T,,M,2.620,N,4.853,K,A*37
16:14:11.763 $GPGGA,001410.00,4915.20278,N,12314.05358,W,1,05,6.51,85.6,M,-17.5,M,,*50
16:14:11.841 $GPGSA,A,3,22,23,13,14,15,,,,,,,,9.67,6.51,7.15*09
16:14:11.894 $GPGSV,4,1,13,01,,,24,02,,,24,07,,,27,08,,,25*70
16:14:11.947 $GPGSV,4,2,13,13,56,259,42,14,82,045,35,15,31,300,33,17,48,168,29*77
16:14:12.019 $GPGSV,4,3,13,19,23,187,28,21,,,26,22,76,263,37,23,05,333,22*43
16:14:12.088 $GPGSV,4,4,13,30,,,33*78
16:14:12.115 $GPGLL,4915.20278,N,12314.05358,W,001410.00,A,A*77
16:14:12.648 $GPRMC,001411.00,A,4915.20298,N,12314.05391,W,2.363,323.28,071223,,,A*73
16:14:12.721 $GPVTG,323.28,T,,M,2.363,N,4.376,K,A*37
16:14:12.764 $GPGGA,001411.00,4915.20298,N,12314.05391,W,1,05,6.51,85.1,M,-17.5,M,,*5D
16:14:12.842 $GPGSA,A,3,22,23,13,14,15,,,,,,,,9.67,6.51,7.15*09
16:14:12.896 $GPGSV,4,1,13,01,,,24,02,,,26,07,,,26,08,,,29*7F
16:14:12.949 $GPGSV,4,2,13,13,56,259,36,14,82,045,34,15,31,300,36,17,48,168,30*78
16:14:13.020 $GPGSV,4,3,13,19,23,187,33,21,,,25,22,76,263,39,23,05,333,22*44
16:14:13.090 $GPGSV,4,4,13,30,,,33*78
16:14:13.117 $GPGLL,4915.20298,N,12314.05391,W,001411.00,A,A*7D
16:14:13.641 $GPRMC,001412.00,A,4915.20370,N,12314.05470,W,2.857,321.41,071223,,,A*7E
16:14:13.715 $GPVTG,321.41,T,,M,2.857,N,5.290,K,A*3E
16:14:13.759 $GPGGA,001412.00,4915.20370,N,12314.05470,W,1,05,6.51,85.2,M,-17.5,M,,*52
16:14:13.837 $GPGSA,A,3,22,23,13,14,15,,,,,,,,9.66,6.51,7.14*09
16:14:13.890 $GPGSV,4,1,13,01,,,25,02,,,32,07,,,25,08,,,24*75
16:14:13.943 $GPGSV,4,2,13,13,56,259,36,14,82,045,36,15,31,300,45,17,48,168,30*7E
16:14:14.015 $GPGSV,4,3,13,19,23,187,29,21,,,31,22,76,263,36,23,05,333,21*46
16:14:14.083 $GPGSV,4,4,13,30,,,33*78
16:14:14.111 $GPGLL,4915.20370,N,12314.05470,W,001412.00,A,A*71
16:14:14.647 $GPRMC,001413.00,A,4915.20444,N,12314.05530,W,3.029,323.72,071223,,,A*78
16:14:14.721 $GPVTG,323.72,T,,M,3.029,N,5.610,K,A*30
16:14:14.765 $GPGGA,001413.00,4915.20444,N,12314.05530,W,1,04,13.32,85.3,M,-17.5,M,,*67
16:14:14.843 $GPGSA,A,3,22,13,14,15,,,,,,,,,24.52,13.32,20.59*3D
16:14:14.899 $GPGSV,4,1,14,01,,,25,02,,,25,07,,,25,08,,,24*74
16:14:14.952 $GPGSV,4,2,14,13,56,259,39,14,82,045,36,15,31,300,44,17,48,168,34*73
16:14:15.024 $GPGSV,4,3,14,19,23,187,36,21,,,26,22,76,263,35,23,05,333,*49
16:14:15.089 $GPGSV,4,4,14,24,05,302,,30,,,30*4E
16:14:15.127 $GPGLL,4915.20444,N,12314.05530,W,001413.00,A,A*75
16:14:33.448 $GPRMC,001414.00,A,4915.204$GPRMC,001432.00,A,4915.21945,N,12314.06619,W,3.481,337.08,071223,,,A*73
16:14:33.721 $GPVTG,337.08,T,,M,3.481,N,6.446,K,A*3C
16:14:33.765 $GPGGA,001432.00,4915.21945,N,12314.06619,W,1,05,12.93,89.0,M,-17.5,M,,*66
16:14:33.843 $GPGSA,A,3,22,23,13,14,15,,,,,,,,23.82,12.93,20.01*31
16:14:33.902 $GPGSV,4,1,14,01,,,25,02,,,32,07,,,27,08,,,26*72
16:14:33.952 $GPGSV,4,2,14,13,56,258,40,14,81,046,38,15,31,299,39,17,48,168,31*7C
16:14:34.027 $GPGSV,4,3,14,19,24,187,26,21,,,26,22,76,264,33,23,05,333,24*48
16:14:34.093 $GPGSV,4,4,14,24,05,302,,30,,,41*48
16:14:34.133 $GPGLL,4915.21945,N,12314.06619,W,001432.00,A,A*70
16:14:34.649 $GPRMC,001433.00,A,4915.22036,N,12314.06702,W,3.339,335.13,071223,,,A*7B
16:14:34.724 $GPVTG,335.13,T,,M,3.339,N,6.184,K,A*3B
16:14:34.767 $GPGGA,001433.00,4915.22036,N,12314.06702,W,1,05,6.45,89.7,M,-17.5,M,,*5B
16:14:34.845 $GPGSA,A,3,22,23,13,14,15,,,,,,,,9.58,6.45,7.08*0C
16:14:34.898 $GPGSV,4,1,14,01,,,26,02,,,29,07,,,26,08,,,25*79
16:14:34.951 $GPGSV,4,2,14,13,56,258,43,14,81,046,38,15,31,299,33,17,48,168,35*71
16:14:35.023 $GPGSV,4,3,14,19,24,187,31,21,,,25,22,76,264,32,23,05,333,23*4B
16:14:35.092 $GPGSV,4,4,14,24,05,302,,30,,,39*47
16:14:35.130 $GPGLL,4915.22036,N,12314.06702,W,001433.00,A,A*74
16:14:35.645 $GPRMC,001434.00,A,4915.22149,N,12314.06796,W,3.512,334.02,071223,,,A*76
16:14:35.719 $GPVTG,334.02,T,,M,3.512,N,6.504,K,A*39
16:14:35.763 $GPGGA,001434.00,4915.22149,N,12314.06796,W,1,05,6.45,90.8,M,-17.5,M,,*5F
16:14:35.841 $GPGSA,A,3,22,23,13,14,15,,,,,,,,9.57,6.45,7.08*03
16:14:35.894 $GPGSV,4,1,14,01,,,32,02,,,21,07,,,27,08,,,26*76
16:14:35.947 $GPGSV,4,2,14,13,56,258,39,14,81,046,35,15,31,299,39,17,48,168,33*7D
16:14:36.018 $GPGSV,4,3,14,19,24,187,31,21,,,25,22,76,264,35,23,05,333,22*4D
16:14:36.087 $GPGSV,4,4,14,24,05,302,,30,,,41*48
16:14:36.124 $GPGLL,4915.22149,N,12314.06796,W,001434.00,A,A*77
16:14:36.648 $GPRMC,001435.00,A,4915.22234,N,12314.06876,W,3.443,333.67,071223,,,A*7E
16:14:36.720 $GPVTG,333.67,T,,M,3.443,N,6.376,K,A*3B
16:14:36.764 $GPGGA,001435.00,4915.22234,N,12314.06876,W,1,05,6.45,91.3,M,-17.5,M,,*5C
16:14:36.842 $GPGSA,A,3,22,23,13,14,15,,,,,,,,9.57,6.45,7.07*0C
16:14:36.895 $GPGSV,4,1,14,01,,,27,02,,,29,07,,,32,08,,,25*7D
16:14:36.948 $GPGSV,4,2,14,13,56,258,29,14,81,046,38,15,31,299,30,17,48,168,33*78
16:14:37.020 $GPGSV,4,3,14,19,24,187,37,21,,,25,22,76,264,31,23,05,333,21*4C
16:14:37.089 $GPGSV,4,4,14,24,05,302,,30,,,37*49
16:14:37.126 $GPGLL,4915.22234,N,12314.06876,W,001435.00,A,A*7E
16:14:37.645 $GPRMC,001436.00,A,4915.22284,N,12314.06911,W,3.364,333.23,071223,,,A*74
16:14:37.718 $GPVTG,333.23,T,,M,3.364,N,6.231,K,A*3B
16:14:37.761 $GPGGA,001436.00,4915.22284,N,12314.06911,W,1,05,6.44,90.6,M,-17.5,M,,*51
16:14:37.839 $GPGSA,A,3,22,23,13,14,15,,,,,,,,9.57,6.44,7.07*0D
16:14:37.892 $GPGSV,4,1,14,01,,,26,02,,,29,07,,,31,08,,,25*7F
16:14:37.945 $GPGSV,4,2,14,13,56,258,36,14,81,046,40,15,31,299,37,17,48,168,36*7B
16:14:38.017 $GPGSV,4,3,14,19,24,187,32,21,,,34,22,76,264,37,23,05,333,20*4E
16:14:38.086 $GPGSV,4,4,14,24,05,302,,30,,,32*4C
16:14:38.123 $GPGLL,4915.22284,N,12314.06911,W,001436.00,A,A*76
16:14:38.648 $GPRMC,001437.00,A,4915.22339,N,12314.06932,W,3.126,335.51,071223,,,A*74
16:14:38.722 $GPVTG,335.51,T,,M,3.126,N,5.790,K,A*31
16:14:38.765 $GPGGA,001437.00,4915.22339,N,12314.06932,W,1,05,6.44,90.2,M,-17.5,M,,*52
16:14:38.843 $GPGSA,A,3,22,23,13,14,15,,,,,,,,9.56,6.44,7.07*0C
16:14:38.896 $GPGSV,4,1,14,01,,,26,02,,,29,07,,,32,08,,,24*7D
16:14:38.952 $GPGSV,4,2,14,13,56,258,33,14,81,046,38,15,31,299,37,17,48,168,33*74
16:14:39.021 $GPGSV,4,3,14,19,24,187,31,21,,,24,22,76,264,33,23,05,333,19*42
16:14:39.090 $GPGSV,4,4,14,24,05,302,,30,,,38*46
16:14:39.128 $GPGLL,4915.22339,N,12314.06932,W,001437.00,A,A*71
16:14:39.649 $GPRMC,001438.00,A,4915.22415,N,12314.06975,W,3.226,337.81,071223,,,A*7D
16:14:39.722 $GPVTG,337.81,T,,M,3.226,N,5.974,K,A*39
16:14:39.766 $GPGGA,001438.00,4915.22415,N,12314.06975,W,1,05,12.81,90.4,M,-17.5,M,,*6D
16:14:39.843 $GPGSA,A,3,22,23,13,14,15,,,,,,,,23.61,12.81,19.83*3F
16:14:39.902 $GPGSV,4,1,14,01,,,27,02,,,28,07,,,27,08,,,23*7E
16:14:39.952 $GPGSV,4,2,14,13,56,258,34,14,81,046,39,15,31,299,39,17,48,168,29*77
16:14:40.027 $GPGSV,4,3,14,19,24,187,28,21,,,23,22,76,264,29,23,05,333,21*4D
16:14:40.093 $GPGSV,4,4,14,24,05,302,,30,,,38*46
16:14:40.133 $GPGLL,4915.22415,N,12314.06975,W,001438.00,A,A*74
16:14:40.645 $GPRMC,001439.00,A,4915.22489,N,12314.07032,W,3.253,337.27,071223,,,A*7C
16:14:40.717 $GPVTG,337.27,T,,M,3.253,N,6.025,K,A*39
16:14:40.761 $GPGGA,001439.00,4915.22489,N,12314.07032,W,1,05,12.79,90.6,M,-17.5,M,,*67
16:14:40.839 $GPGSA,A,3,22,23,13,14,15,,,,,,,,23.57,12.79,19.80*3E
16:14:40.899 $GPGSV,4,1,14,01,,,27,02,,,27,07,,,25,08,,,23*73
16:14:40.948 $GPGSV,4,2,14,13,56,258,30,14,81,046,40,15,31,299,41,17,48,168,29*72
16:14:41.023 $GPGSV,4,3,14,19,24,187,32,21,,,23,22,76,264,30,23,05,333,23*4C
16:14:41.089 $GPGSV,4,4,14,24,05,302,,30,,,41*48
16:14:41.129 $GPGLL,4915.22489,N,12314.07032,W,001439.00,A,A*7B
16:14:41.644 $GPRMC,001440.00,A,4915.22526,N,12314.07107,W,2.762,332.50,071223,,,A*72
16:14:41.718 $GPVTG,332.50,T,,M,2.762,N,5.114,K,A*3A
16:14:41.762 $GPGGA,001440.00,4915.22526,N,12314.07107,W,1,05,6.43,90.8,M,-17.5,M,,*58
16:14:41.840 $GPGSA,A,3,22,23,13,14,15,,,,,,,,9.55,6.43,7.06*09
16:14:41.893 $GPGSV,4,1,14,01,,,26,02,,,29,07,,,31,08,,,23*79
16:14:41.946 $GPGSV,4,2,14,13,56,258,40,14,81,046,40,15,31,299,42,17,48,168,29*76
16:14:42.017 $GPGSV,4,3,14,19,24,187,27,21,,,29,22,76,264,30,23,05,333,23*42
16:14:42.086 $GPGSV,4,4,14,24,05,302,,30,,,40*49
16:14:42.123 $GPGLL,4915.22526,N,12314.07107,W,001440.00,A,A*76
16:14:42.646 $GPRMC,001441.00,A,4915.22612,N,12314.07154,W,2.999,329.11,071223,,,A*74
16:14:42.721 $GPVTG,329.11,T,,M,2.999,N,5.555,K,A*3E
16:14:42.764 $GPGGA,001441.00,4915.22612,N,12314.07154,W,1,05,6.43,90.7,M,-17.5,M,,*54
16:14:42.842 $GPGSA,A,3,22,23,13,14,15,,,,,,,,9.54,6.43,7.06*08
16:14:42.896 $GPGSV,4,1,14,01,,,25,02,,,36,07,,,31,08,,,23*74
16:14:42.949 $GPGSV,4,2,14,13,56,258,37,14,81,046,37,15,31,299,42,17,48,168,28*77
16:14:43.020 $GPGSV,4,3,14,19,24,187,28,21,,,24,22,76,264,37,23,05,333,23*47
16:14:43.089 $GPGSV,4,4,14,24,05,302,,30,,,38*46
16:14:43.126 $GPGLL,4915.22612,N,12314.07154,W,001441.00,A,A*75
16:14:55.135 $GPRMC,001442.00,A,4915.2264915.23509,N,12314.07893,W,001453.00,A,A*7C
16:14:55.646 $GPRMC,001454.00,A,4915.23572,N,12314.07928,W,3.008,333.60,071223,,,A*7A
16:14:55.721 $GPVTG,333.60,T,,M,3.008,N,5.571,K,A*35
16:14:55.764 $GPGGA,001454.00,4915.23572,N,12314.07928,W,1,05,6.39,92.7,M,-17.5,M,,*58
16:14:55.843 $GPGSA,A,3,22,23,13,14,15,,,,,,,,9.49,6.39,7.02*0D
16:14:55.896 $GPGSV,4,1,14,01,,,34,02,,,32,07,,,33,08,,,18*7A
16:14:55.949 $GPGSV,4,2,14,13,56,258,39,14,81,046,35,15,31,299,40,17,48,168,32*72
16:14:56.020 $GPGSV,4,3,14,19,24,187,26,21,,,25,22,76,264,32,23,05,333,20*4E
16:14:56.089 $GPGSV,4,4,14,24,05,302,,30,,,26*49
16:14:56.126 $GPGLL,4915.23572,N,12314.07928,W,001454.00,A,A*76
16:14:56.647 $GPRMC,001455.00,A,4915.23635,N,12314.07946,W,3.104,335.52,071223,,,A*79
16:14:56.722 $GPVTG,335.52,T,,M,3.104,N,5.748,K,A*37
16:14:56.766 $GPGGA,001455.00,4915.23635,N,12314.07946,W,1,05,6.39,92.0,M,-17.5,M,,*56
16:14:56.844 $GPGSA,A,3,22,23,13,14,15,,,,,,,,9.49,6.39,7.01*0E
16:14:56.897 $GPGSV,4,1,14,01,,,31,02,,,27,07,,,27,08,,,18*7E
16:14:56.950 $GPGSV,4,2,14,13,56,258,35,14,81,046,36,15,31,299,35,17,48,168,27*7B
16:14:57.022 $GPGSV,4,3,14,19,24,187,31,21,,,35,22,76,264,33,23,05,333,20*48
16:14:57.090 $GPGSV,4,4,14,24,05,302,,30,,,26*49
16:14:57.127 $GPGLL,4915.23635,N,12314.07946,W,001455.00,A,A*7F
16:14:57.648 $GPRMC,001456.00,A,4915.23700,N,12314.07980,W,3.194,336.29,071223,,,A*71
16:14:57.722 $GPVTG,336.29,T,,M,3.194,N,5.914,K,A*36
16:14:57.766 $GPGGA,001456.00,4915.23700,N,12314.07980,W,1,05,6.39,91.5,M,-17.5,M,,*5E
16:14:57.844 $GPGSA,A,3,22,23,13,14,15,,,,,,,,9.48,6.39,7.01*0F
16:14:57.897 $GPGSV,4,1,14,01,,,32,02,,,32,07,,,32,08,,,18*7D
16:14:57.950 $GPGSV,4,2,14,13,56,258,36,14,81,046,37,15,31,299,27,17,48,168,27*7A
16:14:58.022 $GPGSV,4,3,14,19,24,187,30,21,,,31,22,76,264,33,23,05,333,18*46
16:14:58.090 $GPGSV,4,4,14,24,05,302,,30,,,32*4C
16:14:58.128 $GPGLL,4915.23700,N,12314.07980,W,001456.00,A,A*71
16:14:58.647 $GPRMC,001457.00,A,4915.23782,N,12314.08020,W,3.308,337.87,071223,,,A*74
16:14:58.720 $GPVTG,337.87,T,,M,3.308,N,6.126,K,A*3E
16:14:58.764 $GPGGA,001457.00,4915.23782,N,12314.08020,W,1,05,6.39,91.3,M,-17.5,M,,*5F
16:14:58.842 $GPGSA,A,3,22,23,13,14,15,,,,,,,,9.48,6.39,7.01*0F
16:14:58.895 $GPGSV,4,1,14,01,,,32,02,,,32,07,,,29,08,,,18*77
16:14:58.949 $GPGSV,4,2,14,13,56,258,35,14,81,046,36,15,31,299,36,17,48,168,32*7C
16:14:59.020 $GPGSV,4,3,14,19,24,187,37,21,,,31,22,76,264,33,23,05,333,18*41
16:14:59.089 $GPGSV,4,4,14,24,05,302,,30,,,32*4C
16:14:59.126 $GPGLL,4915.23782,N,12314.08020,W,001457.00,A,A*76
16:14:59.648 $GPRMC,001458.00,A,4915.23848,N,12314.08058,W,3.345,337.13,071223,,,A*79
16:14:59.719 $GPVTG,337.13,T,,M,3.345,N,6.195,K,A*32
16:14:59.763 $GPGGA,001458.00,4915.23848,N,12314.08058,W,1,05,6.38,90.8,M,-17.5,M,,*5D
16:14:59.843 $GPGSA,A,3,22,23,13,14,15,,,,,,,,9.48,6.38,7.00*0F
16:14:59.894 $GPGSV,4,1,14,01,,,28,02,,,29,07,,,29,08,,,16*78
16:14:59.947 $GPGSV,4,2,14,13,56,258,32,14,81,046,34,15,31,299,33,17,48,168,31*7F
16:15:00.018 $GPGSV,4,3,14,19,24,187,30,21,,,30,22,76,264,36,23,05,333,17*4D
16:15:00.087 $GPGSV,4,4,14,24,05,302,,30,,,28*47
16:15:00.125 $GPGLL,4915.23848,N,12314.08058,W,001458.00,A,A*7F
16:15:00.646 $GPRMC,001459.00,A,4915.23893,N,12314.08100,W,3.028,335.50,071223,,,A*7F
16:15:00.720 $GPVTG,335.50,T,,M,3.028,N,5.607,K,A*30
16:15:00.763 $GPGGA,001459.00,4915.23893,N,12314.08100,W,1,05,6.38,90.3,M,-17.5,M,,*5D
16:15:00.841 $GPGSA,A,3,22,23,13,14,15,,,,,,,,9.47,6.38,7.00*00
16:15:00.894 $GPGSV,4,1,14,01,,,28,02,,,34,07,,,28,08,,,15*76
16:15:00.947 $GPGSV,4,2,14,13,56,258,35,14,81,046,35,15,31,299,35,17,48,168,27*78
16:15:01.019 $GPGSV,4,3,14,19,24,187,25,21,,,24,22,76,264,33,23,05,333,17*49
16:15:01.088 $GPGSV,4,4,14,24,05,302,,30,,,29*46
16:15:01.125 $GPGLL,4915.23893,N,12314.08100,W,001459.00,A,A*74
16:15:01.645 $GPRMC,001500.00,A,4915.23962,N,12314.08177,W,3.343,331.21,071223,,,A*71
16:15:01.719 $GPVTG,331.21,T,,M,3.343,N,6.192,K,A*34
16:15:01.763 $GPGGA,001500.00,4915.23962,N,12314.08177,W,1,05,6.38,89.9,M,-17.5,M,,*5D
16:15:01.841 $GPGSA,A,3,22,23,13,14,15,,,,,,,,9.47,6.38,7.00*00
16:15:01.894 $GPGSV,4,1,14,01,,,27,02,,,31,07,,,27,08,,,14*72
16:15:01.948 $GPGSV,4,2,14,13,56,258,35,14,81,046,35,15,31,299,39,17,48,168,31*73
16:15:02.019 $GPGSV,4,3,14,19,24,187,25,21,,,21,22,76,264,28,23,05,333,17*46
16:15:02.087 $GPGSV,4,4,14,24,05,302,,30,,,30*4E
16:15:02.125 $GPGLL,4915.23962,N,12314.08177,W,001500.00,A,A*76
16:15:02.644 $GPRMC,001501.00,A,4915.24019,N,12314.08188,W,2.712,335.26,071223,,,A*70
16:15:02.718 $GPVTG,335.26,T,,M,2.712,N,5.023,K,A*3E
16:15:02.762 $GPGGA,001501.00,4915.24019,N,12314.08188,W,1,04,12.37,90.0,M,-17.5,M,,*64
16:15:02.840 $GPGSA,A,3,22,13,14,15,,,,,,,,,22.83,12.37,19.18*3C
16:15:02.896 $GPGSV,4,1,14,01,,,24,02,,,25,07,,,26,08,,,13*72
16:15:02.949 $GPGSV,4,2,14,13,56,258,36,14,81,046,34,15,31,299,38,17,48,168,25*75
16:15:03.021 $GPGSV,4,3,14,19,24,187,26,21,,,19,22,76,264,32,23,05,333,*43
16:15:03.086 $GPGSV,4,4,14,24,05,302,,30,,,36*48
16:15:03.123 $GPGLL,4915.24019,N,12314.08188,W,001501.00,A,A*75
16:15:03.649 $GPRMC,001502.00,A,4915.24082,N,12314.08214,W,2.646,339.41,071223,,,A*7A
16:15:03.723 $GPVTG,339.41,T,,M,2.646,N,4.901,K,A*3B
16:15:03.766 $GPGGA,001502.00,4915.24082,N,12314.08214,W,1,05,12.36,90.0,M,-17.5,M,,*63
16:15:03.844 $GPGSA,A,3,22,23,13,14,15,,,,,,,,22.79,12.36,19.16*37
16:15:03.904 $GPGSV,4,1,13,01,,,21,02,,,24,07,,,26,13,56,258,39*4F
16:15:03.960 $GPGSV,4,2,13,14,81,046,37,15,31,299,33,17,48,168,25,19,24,187,27*74
16:15:04.031 $GPGSV,4,3,13,21,,,16,22,76,264,32,23,05,333,19,24,05,302,*45
16:15:04.097 $GPGSV,4,4,13,30,,,30*7B
16:15:04.125 $GPGLL,4915.24082,N,12314.08214,W,001502.00,A,A*72
16:15:04.648 $GPRMC,001503.00,A,4915.24140,N,12314.08248,W,2.713,340.66,071223,,,A*77
16:15:04.721 $GPVTG,340.66,T,,M,2.713,N,5.024,K,A*3E
16:15:04.765 $GPGGA,001503.00,4915.24140,N,12314.08248,W,1,05,12.34,90.1,M,-17.5,M,,*67
16:15:04.843 $GPGSA,A,3,22,23,13,14,15,,,,,,,,22.76,12.34,19.13*3F
16:15:04.903 $GPGSV,4,1,13,01,,,18,02,,,21,07,,,25,13,56,258,39*43
16:15:04.959 $GPGSV,4,2,13,14,81,046,36,15,31,299,34,17,48,168,31,19,24,187,27*77
16:15:05.030 $GPGSV,4,3,13,21,,,17,22,76,264,33,23,05,333,19,24,05,302,*45
16:15:05.096 $GPGSV,4,4,13,30,,,25*7F
16:15:05.124 $GPGLL,4915.24140,N,12314.08248,W,001503.00,A,A*75
16:16:58.648 $GPRMC,001657.00,A,4915.31344,N,12314.14368,W,1.424,,071223,,,A*64
16:16:58.716 $GPVTG,,T,,M,1.424,N,2.638,K,A*2F
16:16:58.754 $GPGGA,001657.00,4915.31344,N,12314.14368,W,1,05,6.06,76.7,M,-17.5,M,,*53
16:16:58.832 $GPGSA,A,3,22,23,13,14,15,,,,,,,,9.00,6.06,6.65*0C
16:16:58.885 $GPGSV,4,1,13,01,,,15,02,22,067,26,07,,,22,13,55,256,41*7D
16:16:58.947 $GPGSV,4,2,13,14,80,049,36,15,31,298,43,17,50,167,22,19,25,187,32*79
16:16:59.022 $GPGSV,4,3,13,21,,,24,22,77,266,36,23,05,332,18,24,06,303,34*46
16:16:59.088 $GPGSV,4,4,13,30,,,31*7A
16:16:59.117 $GPGLL,4915.31344,N,12314.14368,W,001657.00,A,A*7B
16:16:59.645 $GPRMC,001658.00,A,4915.31338,N,12314.14347,W,0.651,,071223,,,A*6C
16:16:59.713 $GPVTG,,T,,M,0.651,N,1.205,K,A*27
16:16:59.751 $GPGGA,001658.00,4915.31338,N,12314.14347,W,1,05,6.06,75.9,M,-17.5,M,,*57
16:16:59.829 $GPGSA,A,3,22,23,13,14,15,,,,,,,,9.00,6.06,6.65*0C
16:16:59.882 $GPGSV,4,1,13,01,,,14,02,22,067,26,07,,,21,13,55,256,41*7F
16:16:59.944 $GPGSV,4,2,13,14,80,049,33,15,31,298,40,17,50,167,37,19,25,187,35*7C
16:17:00.019 $GPGSV,4,3,13,21,,,26,22,77,266,30,23,05,332,17,24,06,303,25*4D
16:17:00.084 $GPGSV,4,4,13,30,,,31*7A
16:17:00.113 $GPGLL,4915.31338,N,12314.14347,W,001658.00,A,A*72
16:17:00.648 $GPRMC,001659.00,A,4915.31353,N,12314.14374,W,0.292,,071223,,,A*6B
16:17:00.716 $GPVTG,,T,,M,0.292,N,0.541,K,A*2A
16:17:00.754 $GPGGA,001659.00,4915.31353,N,12314.14374,W,1,05,6.06,76.3,M,-17.5,M,,*52
16:17:00.831 $GPGSA,A,3,22,23,13,14,15,,,,,,,,8.99,6.06,6.64*0C
16:17:00.884 $GPGSV,4,1,13,01,,,14,02,22,067,32,07,,,19,13,55,256,39*7E
16:17:00.947 $GPGSV,4,2,13,14,80,049,36,15,31,298,36,17,50,167,42,19,25,187,37*78
16:17:01.021 $GPGSV,4,3,13,21,,,27,22,77,266,34,23,05,332,14,24,06,303,24*4A
16:17:01.087 $GPGSV,4,4,13,30,,,39*72
16:17:01.115 $GPGLL,4915.31353,N,12314.14374,W,001659.00,A,A*7E
16:17:01.643 $GPRMC,001700.00,A,4915.31359,N,12314.14355,W,0.341,,071223,,,A*60
16:17:01.711 $GPVTG,,T,,M,0.341,N,0.632,K,A*22
16:17:01.748 $GPGGA,001700.00,4915.31359,N,12314.14355,W,1,04,10.56,76.3,M,-17.5,M,,*65
16:17:01.826 $GPGSA,A,3,22,13,14,15,,,,,,,,,19.58,10.56,16.48*3D
16:17:01.883 $GPGSV,4,1,13,02,22,067,35,07,,,20,13,55,256,35,14,80,049,36*4E
16:17:01.951 $GPGSV,4,2,13,15,31,298,35,17,50,167,41,19,25,187,42,21,,,31*4E
16:17:02.017 $GPGSV,4,3,13,22,77,266,37,23,05,332,,24,06,303,21,30,,,35*4A
16:17:02.082 $GPGSV,4,4,13,46,29,148,38*44
16:17:02.117 $GPGLL,4915.31359,N,12314.14355,W,001700.00,A,A*7A
16:17:02.650 $GPRMC,001701.00,A,4915.31366,N,12314.14332,W,0.453,,071223,,,A*68
16:17:02.718 $GPVTG,,T,,M,0.453,N,0.839,K,A*23
16:17:02.756 $GPGGA,001701.00,4915.31366,N,12314.14332,W,1,05,10.55,76.3,M,-17.5,M,,*6B
16:17:02.834 $GPGSA,A,3,22,23,13,14,15,,,,,,,,19.55,10.55,16.46*3C
16:17:02.893 $GPGSV,4,1,13,02,22,067,35,07,,,23,13,55,256,41,14,80,049,40*4F
16:17:02.958 $GPGSV,4,2,13,15,31,298,34,17,50,167,43,19,25,187,42,21,,,31*4D
16:17:03.030 $GPGSV,4,3,13,22,77,266,39,23,05,332,21,24,06,303,23,30,,,40*47
16:17:03.098 $GPGSV,4,4,13,46,29,148,39*45
16:17:03.127 $GPGLL,4915.31366,N,12314.14332,W,001701.00,A,A*76
16:17:03.644 $GPRMC,001702.00,A,4915.31363,N,12314.14323,W,0.220,,071223,,,A*6C
16:17:03.713 $GPVTG,,T,,M,0.220,N,0.407,K,A*20
16:17:03.755 $GPGGA,001702.00,4915.31363,N,12314.14323,W,1,05,10.53,76.1,M,-17.5,M,,*69
16:17:03.828 $GPGSA,A,3,22,23,13,14,15,,,,,,,,19.53,10.53,16.44*3E
16:17:03.887 $GPGSV,4,1,13,02,22,067,35,07,,,23,13,55,256,40,14,80,049,32*4B
16:17:03.953 $GPGSV,4,2,13,15,31,298,37,17,50,167,41,19,25,187,41,21,,,32*4C
16:17:04.022 $GPGSV,4,3,13,22,77,266,38,23,05,332,22,24,06,303,22,30,,,37*44
16:17:04.090 $GPGSV,4,4,13,46,29,148,40*4B
16:17:04.121 $GPGLL,4915.31363,N,12314.14323,W,001702.00,A,A*70
16:17:04.652 $GPRMC,001703.00,A,4915.31408,N,12314.14392,W,0.340,,071223,,,A*6A
16:17:04.720 $GPVTG,,T,,M,0.340,N,0.629,K,A*29
16:17:04.758 $GPGGA,001703.00,4915.31408,N,12314.14392,W,1,05,6.05,78.0,M,-17.5,M,,*53
16:17:04.836 $GPGSA,A,3,22,23,13,14,15,,,,,,,,8.98,6.05,6.63*09
16:17:04.889 $GPGSV,4,1,13,02,22,067,31,07,,,22,13,55,256,38,14,80,049,26*44
16:17:04.957 $GPGSV,4,2,13,15,31,298,33,17,50,167,40,19,25,187,40,21,,,31*4B
16:17:05.026 $GPGSV,4,3,13,22,77,266,37,23,05,332,22,24,06,303,22,30,,,35*49
16:17:05.091 $GPGSV,4,4,13,46,29,148,37*4B
16:17:05.129 $GPGLL,4915.31408,N,12314.14392,W,001703.00,A,A*71
16:17:05.648 $GPRMC,001704.00,A,4915.31415,N,12314.14479,W,0.444,,071223,,,A*60
16:17:05.717 $GPVTG,,T,,M,0.444,N,0.823,K,A*2E
16:17:05.754 $GPGGA,001704.00,4915.31415,N,12314.14479,W,1,05,6.05,80.5,M,-17.5,M,,*58
16:17:05.832 $GPGSA,A,3,22,23,13,14,15,,,,,,,,8.97,6.05,6.63*06
16:17:05.885 $GPGSV,4,1,13,02,22,067,34,07,,,24,13,55,256,39,14,80,049,28*48
16:17:05.954 $GPGSV,4,2,13,15,31,298,36,17,50,167,40,19,25,187,41,21,,,30*4E
16:17:06.022 $GPGSV,4,3,13,22,77,266,33,23,05,332,20,24,06,303,23,30,,,38*43
16:17:06.088 $GPGSV,4,4,13,46,29,148,41*4A
16:17:06.122 $GPGLL,4915.31415,N,12314.14479,W,001704.00,A,A*78
16:17:06.648 $GPRMC,001705.00,A,4915.31449,N,12314.14551,W,0.445,,071223,,,A*62
16:17:06.716 $GPVTG,,T,,M,0.445,N,0.824,K,A*28
16:17:06.754 $GPGGA,001705.00,4915.31449,N,12314.14551,W,1,05,6.04,81.9,M,-17.5,M,,*57
16:17:06.832 $GPGSA,A,3,22,23,13,14,15,,,,,,,,8.97,6.04,6.63*07
16:17:06.885 $GPGSV,4,1,13,02,22,067,37,07,,,34,13,55,256,40,14,80,049,33*4E
16:17:06.953 $GPGSV,4,2,13,15,31,298,37,17,50,167,39,19,25,187,42,21,,,31*43
16:17:07.022 $GPGSV,4,3,13,22,77,266,35,23,05,332,19,24,06,303,33,30,,,36*40
16:17:07.088 $GPGSV,4,4,13,46,29,148,37*4B
16:17:07.122 $GPGLL,4915.31449,N,12314.14551,W,001705.00,A,A*7B
16:17:07.648 $GPRMC,001706.00,A,4915.31450,N,12314.14593,W,0.566,,071223,,,A*67
16:17:07.716 $GPVTG,,T,,M,0.566,N,1.048,K,A*2B
16:17:07.753 $GPGGA,001706.00,4915.31450,N,12314.14593,W,1,05,6.04,82.9,M,-17.5,M,,*51
16:17:07.831 $GPGSA,A,3,22,23,13,14,15,,,,,,,,8.96,6.04,6.62*07
16:17:07.884 $GPGSV,4,1,13,02,22,067,29,07,,,30,13,55,256,35,14,80,049,33*47
16:17:07.953 $GPGSV,4,2,13,15,31,298,22,17,50,167,40,19,25,187,43,21,,,34*4D
16:17:08.022 $GPGSV,4,3,13,22,77,266,32,23,05,332,19,24,06,303,30,30,,,37*45
16:17:08.087 $GPGSV,4,4,13,46,29,148,41*4A
16:17:08.121 $GPGLL,4915.31450,N,12314.14593,W,001706.00,A,A*7E
16:17:08.650 $GPRMC,001707.00,A,4915.31429,N,12314.14624,W,0.929,,071223,,,A*60
16:17:08.718 $GPVTG,,T,,M,0.929,N,1.721,K,A*24
16:17:08.756 $GPGGA,001707.00,4915.31429,N,12314.14624,W,1,05,6.04,84.0,M,-17.5,M,,*5E
16:17:08.834 $GPGSA,A,3,22,23,13,14,15,,,,,,,,8.96,6.04,6.62*07
16:17:08.887 $GPGSV,4,1,13,02,22,067,19,07,,,28,13,55,256,33,14,80,049,34*4C
16:17:08.955 $GPGSV,4,2,13,15,31,298,22,17,50,167,40,19,25,187,43,21,,,32*4B
16:17:09.024 $GPGSV,4,3,13,22,77,266,32,23,05,332,19,24,06,303,,30,,,37*46
16:17:09.090 $GPGSV,4,4,13,46,29,148,40*4B
16:17:09.121 $GPGLL,4915.31429,N,12314.14624,W,001707.00,A,A*7E
16:17:09.648 $GPRMC,001708.00,A,4915.31420,N,12314.14654,W,0.916,,071223,,,A*6D
16:17:09.717 $GPVTG,,T,,M,0.916,N,1.697,K,A*24
16:17:09.754 $GPGGA,001708.00,4915.31420,N,12314.14654,W,1,05,6.04,85.2,M,-17.5,M,,*5C
16:17:09.832 $GPGSA,A,3,22,23,13,14,15,,,,,,,,8.96,6.04,6.62*07
16:17:09.885 $GPGSV,4,1,13,02,22,067,36,07,,,28,13,55,256,39,14,80,049,30*4F
16:17:09.953 $GPGSV,4,2,13,15,31,298,36,17,50,167,40,19,25,187,40,21,,,34*4B
16:17:10.022 $GPGSV,4,3,13,22,77,266,33,23,05,332,20,24,06,303,26,30,,,33*4D
16:17:10.088 $GPGSV,4,4,13,46,29,148,39*45
16:17:10.122 $GPGLL,4915.31420,N,12314.14654,W,001708.00,A,A*7F
16:17:10.650 $GPRMC,001709.00,A,4915.31442,N,12314.14698,W,0.449,,071223,,,A*6F
16:17:10.717 $GPVTG,,T,,M,0.449,N,0.831,K,A*20
16:17:10.755 $GPGGA,001709.00,4915.31442,N,12314.14698,W,1,05,6.03,86.4,M,-17.5,M,,*5B
16:17:10.833 $GPGSA,A,3,22,23,13,14,15,,,,,,,,8.95,6.03,6.61*00
16:17:10.886 $GPGSV,4,1,13,02,22,067,37,07,,,33,13,55,256,38,14,80,049,31*44
16:17:10.954 $GPGSV,4,2,13,15,31,298,39,17,50,167,39,19,25,187,37,21,,,31*4F
16:17:11.023 $GPGSV,4,3,13,22,77,266,36,23,05,332,21,24,06,303,34,30,,,36*4F
16:17:11.089 $GPGSV,4,4,13,46,29,148,35*49
16:17:11.123 $GPGLL,4915.31442,N,12314.14698,W,001709.00,A,A*7A
16:17:11.647 $GPRMC,001710.00,A,4915.31456,N,12314.14767,W,0.405,,071223,,,A*6B
16:17:11.715 $GPVTG,,T,,M,0.405,N,0.751,K,A*21
16:17:11.753 $GPGGA,001710.00,4915.31456,N,12314.14767,W,1,05,6.03,88.2,M,-17.5,M,,*5F
16:17:11.831 $GPGSA,A,3,22,23,13,14,15,,,,,,,,8.95,6.03,6.61*00
16:17:11.883 $GPGSV,4,1,13,02,22,067,37,07,,,33,13,55,256,38,14,80,049,32*47
16:17:11.952 $GPGSV,4,2,13,15,31,298,39,17,50,167,40,19,25,187,37,21,,,32*42
16:17:12.021 $GPGSV,4,3,13,22,77,266,34,23,05,332,22,24,06,303,36,30,,,34*4E
16:17:12.086 $GPGSV,4,4,13,46,29,148,35*49
16:17:12.121 $GPGLL,4915.31456,N,12314.14767,W,001710.00,A,A*76
16:17:12.648 $GPRMC,001711.00,A,4915.31470,N,12314.14796,W,0.034,,071223,,,A*66
16:17:12.716 $GPVTG,,T,,M,0.034,N,0.064,K,A*26
16:17:12.754 $GPGGA,001711.00,4915.31470,N,12314.14796,W,1,05,6.03,88.8,M,-17.5,M,,*5E
16:17:12.832 $GPGSA,A,3,22,23,13,14,15,,,,,,,,8.94,6.03,6.61*01
16:17:12.885 $GPGSV,4,1,13,02,22,067,37,07,,,34,13,55,256,38,14,80,049,32*40
16:17:12.954 $GPGSV,4,2,13,15,31,298,38,17,50,167,41,19,25,187,38,21,,,31*4E
16:17:13.022 $GPGSV,4,3,13,22,77,266,34,23,05,332,21,24,06,303,37,30,,,33*4B
