$GPGSV,3,1,11,02,23,064,,13,54,249,25,14,76,055,27,15,32,293,34*7A
$GPGSV,3,2,11,17,54,165,33,19,29,187,31,21,19,052,,22,80,279,34*7D
$GPGSV,3,3,11,23,05,328,21,24,09,304,,30,52,128,40*44
$GPGLL,4915.24785,N,12314.09006,W,002134.80,A,A*78
$GPRMC,002135.00,A,4915.24768,N,12314.09030,W,0.067,,081223,,,A*65
$GPVTG,,T,,M,0.067,N,0.125,K,A*24
$GPGGA,002135.00,4915.24768,N,12314.09030,W,1,08,1.38,87.4,M,-17.5,M,,*55
$GPGSA,A,3,22,14,13,17,30,15,19,23,,,,,2.03,1.38,1.48*0B
$GPGSV,3,1,11,02,23,064,,13,54,249,25,14,76,055,32,15,32,293,37*7D
$GPGSV,3,2,11,17,54,165,38,19,29,187,31,21,19,052,,22,80,279,34*76
$GPGSV,3,3,11,23,05,328,22,24,09,304,23,30,52,128,43*45
$GPGLL,4915.24768,N,12314.09030,W,002135.00,A,A*77
$GPRMC,002135.20,A,4915.24767,N,12314.09040,W,0.132,,081223,,,A*6E
$GPVTG,,T,,M,0.132,N,0.245,K,A*20
$GPGGA,002135.20,4915.24767,N,12314.09040,W,1,09,1.38,87.3,M,-17.5,M,,*59
$GPGSA,A,3,22,14,13,17,30,15,19,21,23,,,,2.03,1.38,1.48*08
$GPGSV,3,1,11,02,23,064,,13,54,249,24,14,76,055,34,15,32,293,36*7B
$GPGSV,3,2,11,17,54,165,35,19,29,187,34,21,19,052,16,22,80,279,30*7D
$GPGSV,3,3,11,23,05,328,22,24,09,304,22,30,52,128,40*47
$GPGLL,4915.24767,N,12314.09040,W,002135.20,A,A*7D
$GPRMC,002135.40,A,4915.24758,N,12314.09050,W,0.091,,081223,,,A*6D
$GPVTG,,T,,M,0.091,N,0.168,K,A*24
$GPGGA,002135.40,4915.24758,N,12314.09050,W,1,08,1.38,87.4,M,-17.5,M,,*54
$GPGSA,A,3,22,14,13,17,30,15,19,23,,,,,2.03,1.38,1.48*0B
$GPGSV,3,1,11,02,23,064,,13,54,249,25,14,76,055,34,15,32,293,33*7F
$GPGSV,3,2,11,17,54,165,37,19,29,187,34,21,19,052,16,22,80,279,29*77
$GPGSV,3,3,11,23,05,328,21,24,09,304,22,30,52,128,38*4B
$GPGLL,4915.24758,N,12314.09050,W,002135.40,A,A*76
$GPRMC,002135.60,A,4915.24746,N,12314.09054,W,0.299,,081223,,,A*6E
$GPVTG,,T,,M,0.299,N,0.554,K,A*25
$GPGGA,002135.60,4915.24746,N,12314.09054,W,1,08,1.38,87.4,M,-17.5,M,,*5D
$GPGSA,A,3,22,14,13,17,30,15,19,23,,,,,2.03,1.38,1.48*0B
$GPGSV,3,1,11,02,23,064,,13,54,249,30,14,76,055,33,15,32,293,32*7D
$GPGSV,3,2,11,17,54,165,40,19,29,187,32,21,19,052,15,22,80,279,28*73
$GPGSV,3,3,11,23,05,328,20,24,09,304,20,30,52,128,34*44
$GPGLL,4915.24746,N,12314.09054,W,002135.60,A,A*7F
$GPRMC,002135.80,A,4915.24740,N,12314.09047,W,0.752,,081223,,,A*66
$GPVTG,,T,,M,0.752,N,1.393,K,A*2B
$GPGGA,002135.80,4915.24740,N,12314.09047,W,1,08,1.38,87.5,M,-17.5,M,,*56
$GPGSA,A,3,22,14,13,17,30,15,19,23,,,,,2.03,1.38,1.48*0B
$GPGSV,3,1,11,02,23,064,,13,54,249,30,14,76,055,33,15,32,293,32*7D
$GPGSV,3,2,11,17,54,165,40,19,29,187,32,21,19,052,14,22,80,279,28*72
$GPGSV,3,3,11,23,05,328,19,24,09,304,20,30,52,128,34*4E
$GPGLL,4915.24740,N,12314.09047,W,002135.80,A,A*75
$GPRMC,002136.00,A,4915.24742,N,12314.09028,W,0.873,,081223,,,A*6A
$GPVTG,,T,,M,0.873,N,1.617,K,A*2E
$GPGGA,002136.00,4915.24742,N,12314.09028,W,1,08,1.38,87.2,M,-17.5,M,,*51
$GPGSA,A,3,22,14,13,17,30,15,19,23,,,,,2.03,1.38,1.48*0B
$GPGSV,3,1,11,02,23,064,,13,54,249,34,14,76,055,33,15,32,293,32*79
$GPGSV,3,2,11,17,54,165,38,19,29,187,33,21,19,052,14,22,80,279,28*7C
$GPGSV,3,3,11,23,05,328,19,24,09,304,19,30,52,128,34*44
$GPGLL,4915.24742,N,12314.09028,W,002136.00,A,A*75
$GPRMC,002136.20,A,4915.24754,N,12314.09015,W,0.850,,081223,,,A*60
$GPVTG,,T,,M,0.850,N,1.574,K,A*29
$GPGGA,002136.20,4915.24754,N,12314.09015,W,1,08,1.38,86.8,M,-17.5,M,,*51
$GPGSA,A,3,22,14,13,17,30,15,19,23,,,,,2.03,1.38,1.48*0B
$GPGSV,3,1,11,02,23,064,,13,54,249,34,14,76,055,33,15,32,293,39*72
$GPGSV,3,2,11,17,54,165,40,19,29,187,33,21,19,052,14,22,80,279,29*72
$GPGSV,3,3,11,23,05,328,19,24,09,304,19,30,52,128,39*49
$GPGLL,4915.24754,N,12314.09015,W,002136.20,A,A*7E
$GPRMC,002136.40,A,4915.24759,N,12314.09004,W,0.903,,081223,,,A*6C
$GPVTG,,T,,M,0.903,N,1.672,K,A*2B
$GPGGA,002136.40,4915.24759,N,12314.09004,W,1,08,1.38,86.5,M,-17.5,M,,*57
$GPGSA,A,3,22,14,13,17,30,15,19,23,,,,,2.03,1.38,1.48*0B
$GPGSV,3,1,11,02,23,064,,13,54,249,34,14,76,055,33,15,32,293,39*72
$GPGSV,3,2,11,17,54,165,35,19,29,187,21,21,19,052,14,22,80,279,33*78
$GPGSV,3,3,11,23,05,328,19,24,09,304,19,30,52,128,39*49
$GPGLL,4915.24759,N,12314.09004,W,002136.40,A,A*75
$GPRMC,002136.60,A,4915.24756,N,12314.09003,W,0.765,,081223,,,A*68
$GPVTG,,T,,M,0.765,N,1.417,K,A*24
$GPGGA,002136.60,4915.24756,N,12314.09003,W,1,09,1.38,86.4,M,-17.5,M,,*5D
$GPGSA,A,3,22,14,13,17,30,15,19,21,23,,,,2.03,1.38,1.48*08
$GPGSV,3,1,11,02,23,064,,13,54,249,33,14,76,055,35,15,32,293,36*7C
$GPGSV,3,2,11,17,54,165,39,19,29,187,20,21,19,052,15,22,80,279,33*74
$GPGSV,3,3,11,23,05,328,19,24,09,304,18,30,52,128,36*47
$GPGLL,4915.24756,N,12314.09003,W,002136.60,A,A*7F
$GPRMC,002136.80,A,4915.24755,N,12314.08999,W,0.678,,081223,,,A*63
$GPVTG,,T,,M,0.678,N,1.256,K,A*2A
$GPGGA,002136.80,4915.24755,N,12314.08999,W,1,09,1.38,86.1,M,-17.5,M,,*5E
$GPGSA,A,3,22,14,13,17,30,15,19,21,23,,,,2.03,1.38,1.48*08
$GPGSV,3,1,11,02,23,064,,13,54,249,33,14,76,055,35,15,32,293,36*7C
$GPGSV,3,2,11,17,54,165,39,19,29,187,21,21,19,052,15,22,80,279,33*75
$GPGSV,3,3,11,23,05,328,20,24,09,304,17,30,52,128,36*42
$GPGLL,4915.24755,N,12314.08999,W,002136.80,A,A*79
$GPRMC,002137.00,A,4915.24757,N,12314.08990,W,0.914,,081223,,,A*64
$GPVTG,,T,,M,0.914,N,1.693,K,A*22
$GPGGA,002137.00,4915.24757,N,12314.08990,W,1,09,1.38,85.9,M,-17.5,M,,*57
$GPGSA,A,3,22,14,13,17,30,15,19,21,23,,,,2.03,1.38,1.48*08
$GPGSV,3,1,11,02,23,064,,13,54,249,29,14,76,055,35,15,32,293,36*77
$GPGSV,3,2,11,17,54,165,37,19,29,187,28,21,19,052,15,22,80,279,32*73
$GPGSV,3,3,11,23,05,328,20,24,09,304,17,30,52,128,38*4C
$GPGLL,4915.24757,N,12314.08990,W,002137.00,A,A*7B
$GPRMC,002137.20,A,4915.24758,N,12314.08985,W,0.870,,081223,,,A*6E
$GPVTG,,T,,M,0.870,N,1.611,K,A*2B
$GPGGA,002137.20,4915.24758,N,12314.08985,W,1,09,1.38,85.6,M,-17.5,M,,*51
$GPGSA,A,3,22,14,13,17,30,15,19,21,23,,,,2.03,1.38,1.48*08
$GPGSV,3,1,11,02,23,064,,13,54,249,29,14,76,055,35,15,32,293,38*79
$GPGSV,3,2,11,17,54,165,34,19,29,187,28,21,19,052,15,22,80,279,32*70
$GPGSV,3,3,11,23,05,328,20,24,09,304,17,30,52,128,40*43
$GPGLL,4915.24758,N,12314.08985,W,002137.20,A,A*72
$GPRMC,002137.40,A,4915.24760,N,12314.08981,W,0.750,,081223,,,A*6A
$GPVTG,,T,,M,0.750,N,1.389,K,A*22
$GPGGA,002137.40,4915.24760,N,12314.08981,W,1,09,1.38,85.5,M,-17.5,M,,*5B
$GPGSA,A,3,22,14,13,17,30,15,19,21,23,,,,2.03,1.38,1.48*08
$GPGSV,3,1,11,02,23,064,,13,54,249,28,14,76,055,32,15,32,293,38*7F
$GPGSV,3,2,11,17,54,165,31,19,29,187,21,21,19,052,16,22,80,279,32*7F
$GPGSV,3,3,11,23,05,328,21,24,09,304,17,30,52,128,36*43
$GPGLL,4915.24760,N,12314.08981,W,002137.40,A,A*7B
$GPRMC,002137.60,A,4915.24762,N,12314.08973,W,0.754,,081223,,,A*63
$GPVTG,,T,,M,0.754,N,1.397,K,A*29
$GPGGA,002137.60,4915.24762,N,12314.08973,W,1,09,1.38,85.3,M,-17.5,M,,*50
$GPGSA,A,3,22,14,13,17,30,15,19,21,23,,,,2.03,1.38,1.48*08
$GPGSV,3,1,11,02,23,064,,13,54,249,28,14,76,055,32,15,32,293,36*71
$GPGSV,3,2,11,17,54,165,26,19,29,187,23,21,19,052,16,22,80,279,32*7B
$GPGSV,3,3,11,23,05,328,20,24,09,304,17,30,52,128,30*44
$GPGLL,4915.24762,N,12314.08973,W,002137.60,A,A*76
$GPRMC,002137.80,A,4915.24764,N,12314.08971,W,0.616,,081223,,,A*6E
$GPVTG,,T,,M,0.616,N,1.141,K,A*27
$GPGGA,002137.80,4915.24764,N,12314.08971,W,1,09,1.38,85.2,M,-17.5,M,,*5B
$GPGSA,A,3,22,14,13,17,30,15,19,21,23,,,,2.03,1.38,1.48*08
$GPGSV,3,1,11,02,23,063,,13,54,249,28,14,76,055,31,15,32,293,34*77
$GPGSV,3,2,11,17,54,165,27,19,29,187,24,21,19,052,16,22,80,279,28*76
$GPGSV,3,3,11,23,05,328,19,24,09,304,17,30,52,128,33*4D
$GPGLL,4915.24764,N,12314.08971,W,002137.80,A,A*7C
$GPRMC,002138.00,A,4915.24768,N,12314.08966,W,0.561,,081223,,,A*60
$GPVTG,,T,,M,0.561,N,1.040,K,A*24
$GPGGA,002138.00,4915.24768,N,12314.08966,W,1,09,1.38,85.1,M,-17.5,M,,*55
$GPGSA,A,3,22,14,13,17,30,15,19,21,23,,,,2.03,1.38,1.48*08
$GPGSV,3,1,11,02,23,063,,13,54,249,29,14,76,055,26,15,32,293,34*70
$GPGSV,3,2,11,17,54,165,27,19,29,187,24,21,19,052,17,22,80,279,19*75
$GPGSV,3,3,11,23,05,328,19,24,09,304,17,30,52,128,29*46
$GPGLL,4915.24768,N,12314.08966,W,002138.00,A,A*71
$GPRMC,002138.20,A,4915.24771,N,12314.08961,W,0.604,,081223,,,A*6D
$GPVTG,,T,,M,0.604,N,1.118,K,A*28
$GPGGA,002138.20,4915.24771,N,12314.08961,W,1,09,1.38,85.1,M,-17.5,M,,*58
$GPGSA,A,3,22,14,13,17,30,15,19,21,23,,,,2.03,1.38,1.48*08
$GPGSV,3,1,11,02,23,063,,13,54,249,28,14,76,055,25,15,32,293,34*72
$GPGSV,3,2,11,17,54,165,35,19,29,187,25,21,19,052,16,22,80,279,20*7C
$GPGSV,3,3,11,23,05,328,19,24,09,304,16,30,52,128,29*47
$GPGLL,4915.24771,N,12314.08961,W,002138.20,A,A*7C
$GPRMC,002138.40,A,4915.24772,N,12314.08965,W,0.385,,081223,,,A*60
$GPVTG,,T,,M,0.385,N,0.713,K,A*28
$GPGGA,002138.40,4915.24772,N,12314.08965,W,1,09,1.38,85.0,M,-17.5,M,,*58
$GPGSA,A,3,22,14,13,17,30,15,19,21,23,,,,2.03,1.38,1.48*08
$GPGSV,3,1,11,02,23,063,,13,54,249,29,14,76,055,25,15,32,293,34*73
$GPGSV,3,2,11,17,54,165,35,19,29,187,26,21,19,052,16,22,80,279,20*7F
$GPGSV,3,3,11,23,05,328,20,24,09,304,17,30,52,128,29*4C
$GPGLL,4915.24772,N,12314.08965,W,002138.40,A,A*7D
$GPRMC,002138.60,A,4915.24774,N,12314.08968,W,0.140,,081223,,,A*62
$GPVTG,,T,,M,0.140,N,0.259,K,A*28
$GPGGA,002138.60,4915.24774,N,12314.08968,W,1,09,1.38,85.0,M,-17.5,M,,*51
$GPGSA,A,3,22,14,13,17,30,15,19,21,23,,,,2.03,1.38,1.48*08
$GPGSV,3,1,11,02,23,063,,13,54,249,29,14,76,055,26,15,32,293,34*70
$GPGSV,3,2,11,17,54,165,35,19,29,187,31,21,19,052,16,22,80,279,20*79
$GPGSV,3,3,11,23,05,328,21,24,09,304,17,30,52,128,29*4D
$GPGLL,4915.24774,N,12314.08968,W,002138.60,A,A*74
$GPRMC,002138.80,A,4915.24768,N,12314.08983,W,0.179,,081223,,,A*6E
$GPVTG,,T,,M,0.179,N,0.332,K,A*2E
$GPGGA,002138.80,4915.24768,N,12314.08983,W,1,09,1.03,85.1,M,-17.5,M,,*5E
$GPGSA,A,3,22,14,13,17,30,15,19,21,23,,,,1.70,1.03,1.35*0D
$GPGSV,3,1,11,02,23,063,,13,54,249,28,14,76,055,31,15,32,293,31*72
$GPGSV,3,2,11,17,54,165,35,19,29,187,31,21,19,052,16,22,80,279,21*78
$GPGSV,3,3,11,23,05,328,22,24,09,304,17,30,52,128,28*4F
$GPGLL,4915.24768,N,12314.08983,W,002138.80,A,A*72
$GPRMC,002139.00,A,4915.24761,N,12314.08997,W,0.369,,081223,,,A*68
$GPVTG,,T,,M,0.369,N,0.683,K,A*22
$GPGGA,002139.00,4915.24761,N,12314.08997,W,1,09,1.03,85.3,M,-17.5,M,,*59
$GPGSA,A,3,22,14,13,17,30,15,19,21,23,,,,1.70,1.03,1.35*0D
$GPGSV,3,1,11,02,23,063,,13,54,249,29,14,76,055,31,15,32,293,31*73
$GPGSV,3,2,11,17,54,165,35,19,29,187,25,21,19,052,16,22,80,279,20*7C
$GPGSV,3,3,11,23,05,328,22,24,09,304,17,30,52,128,28*4F
$GPGLL,4915.24761,N,12314.08997,W,002139.00,A,A*77
$GPRMC,002139.20,A,4915.24758,N,12314.09009,W,0.385,,081223,,,A*6D
$GPVTG,,T,,M,0.385,N,0.713,K,A*28
$GPGGA,002139.20,4915.24758,N,12314.09009,W,1,09,1.03,85.4,M,-17.5,M,,*59
$GPGSA,A,3,22,14,13,17,30,15,19,21,23,,,,1.70,1.03,1.35*0D
$GPGSV,3,1,11,02,23,063,,13,54,249,29,14,76,055,26,15,32,293,30*74
$GPGSV,3,2,11,17,54,165,36,19,29,187,25,21,19,052,18,22,80,279,29*78
$GPGSV,3,3,11,23,05,328,22,24,09,304,17,30,52,128,20*47
$GPGLL,4915.24758,N,12314.09009,W,002139.20,A,A*70
$GPRMC,002139.40,A,4915.24753,N,12314.09017,W,0.376,,081223,,,A*63
$GPVTG,,T,,M,0.376,N,0.696,K,A*28
$GPGGA,002139.40,4915.24753,N,12314.09017,W,1,09,1.03,85.4,M,-17.5,M,,*5B
$GPGSA,A,3,22,14,13,17,30,15,19,21,23,,,,1.70,1.03,1.35*0D
$GPGSV,3,1,11,02,23,063,,13,54,249,33,14,76,055,26,15,32,293,34*7B
$GPGSV,3,2,11,17,54,165,32,19,29,187,25,21,19,052,18,22,80,279,29*7C
$GPGSV,3,3,11,23,05,328,21,24,09,304,18,30,52,128,21*4A
$GPGLL,4915.24753,N,12314.09017,W,002139.40,A,A*72
$GPRMC,002139.60,A,4915.24744,N,12314.09034,W,0.639,,081223,,,A*68
$GPVTG,,T,,M,0.639,N,1.184,K,A*23
$GPGGA,002139.60,4915.24744,N,12314.09034,W,1,09,1.03,85.7,M,-17.5,M,,*5D
$GPGSA,A,3,22,14,13,17,30,15,19,21,23,,,,1.70,1.03,1.35*0D
$GPGSV,3,1,11,02,23,063,,13,54,249,33,14,76,055,25,15,32,293,34*78
$GPGSV,3,2,11,17,54,165,32,19,29,187,25,21,19,052,18,22,80,279,29*7C
$GPGSV,3,3,11,23,05,328,20,24,09,304,17,30,52,128,22*47
$GPGLL,4915.24744,N,12314.09034,W,002139.60,A,A*77
$GPRMC,002139.80,A,4915.24740,N,12314.09034,W,0.510,,081223,,,A*6A
$GPVTG,,T,,M,0.510,N,0.945,K,A*2F
$GPGGA,002139.80,4915.24740,N,12314.09034,W,1,09,1.03,85.7,M,-17.5,M,,*57
$GPGSA,A,3,22,14,13,17,30,15,19,21,23,,,,1.70,1.03,1.35*0D
$GPGSV,3,1,11,02,23,063,,13,54,249,33,14,76,055,31,15,32,293,30*79
$GPGSV,3,2,11,17,54,165,31,19,29,187,26,21,19,052,18,22,80,279,29*7C
$GPGSV,3,3,11,23,05,328,20,24,09,304,17,30,52,128,22*47
$GPGLL,4915.24740,N,12314.09034,W,002139.80,A,A*7D
$GPRMC,002140.00,A,4915.24741,N,12314.09034,W,0.415,,081223,,,A*69
$GPVTG,,T,,M,0.415,N,0.769,K,A*2B
$GPGGA,002140.00,4915.24741,N,12314.09034,W,1,09,1.03,85.7,M,-17.5,M,,*50
$GPGSA,A,3,22,14,13,17,30,15,19,21,23,,,,1.70,1.03,1.35*0D
$GPGSV,3,1,11,02,23,063,,13,54,249,34,14,76,055,27,15,32,293,34*7D
$GPGSV,3,2,11,17,54,165,31,19,29,187,26,21,19,052,18,22,80,279,29*7C
$GPGSV,3,3,11,23,05,328,20,24,09,304,17,30,52,128,22*47
$GPGLL,4915.24741,N,12314.09034,W,002140.00,A,A*7A
$GPRMC,002140.20,A,4915.24738,N,12314.09041,W,0.424,,081223,,,A*65
$GPVTG,,T,,M,0.424,N,0.786,K,A*28
$GPGGA,002140.20,4915.24738,N,12314.09041,W,1,09,1.03,86.0,M,-17.5,M,,*5A
$GPGSA,A,3,22,14,13,17,30,15,19,21,23,,,,1.70,1.03,1.35*0D
$GPGSV,3,1,11,02,23,063,,13,54,249,29,14,76,055,31,15,32,293,37*75
$GPGSV,3,2,11,17,54,165,26,19,29,187,25,21,19,052,18,22,80,279,29*79
$GPGSV,3,3,11,23,05,328,19,24,09,304,16,30,52,128,23*4D
$GPGLL,4915.24738,N,12314.09041,W,002140.20,A,A*74
$GPRMC,002140.40,A,4915.24740,N,12314.09047,W,0.762,,081223,,,A*6B
$GPVTG,,T,,M,0.762,N,1.411,K,A*25
$GPGGA,002140.40,4915.24740,N,12314.09047,W,1,09,1.03,86.5,M,-17.5,M,,*50
$GPGSA,A,3,22,14,13,17,30,15,19,21,23,,,,1.70,1.03,1.35*0D
$GPGSV,3,1,11,02,23,063,,13,54,249,22,14,76,055,31,15,32,293,39*70
$GPGSV,3,2,11,17,54,165,32,19,29,187,25,21,19,052,19,22,80,279,29*7D
$GPGSV,3,3,11,23,05,328,20,24,09,304,15,30,52,128,29*4E
$GPGLL,4915.24740,N,12314.09047,W,002140.40,A,A*7B
$GPRMC,002140.60,A,4915.24744,N,12314.09043,W,1.193,,081223,,,A*60
$GPVTG,,T,,M,1.193,N,2.209,K,A*20
$GPGGA,002140.60,4915.24744,N,12314.09043,W,1,09,1.03,86.9,M,-17.5,M,,*5E
$GPGSA,A,3,22,14,13,17,30,15,19,21,23,,,,1.70,1.03,1.35*0D
$GPGSV,3,1,11,02,23,063,,13,54,249,23,14,76,055,32,15,32,293,41*7D
$GPGSV,3,2,11,17,54,165,32,19,29,187,25,21,19,052,19,22,80,279,29*7D
$GPGSV,3,3,11,23,05,328,20,24,09,304,14,30,52,128,29*4F
$GPGLL,4915.24744,N,12314.09043,W,002140.60,A,A*79
$GPRMC,002140.80,A,4915.24740,N,12314.09048,W,1.107,,081223,,,A*6C
$GPVTG,,T,,M,1.107,N,2.050,K,A*23
$GPGGA,002140.80,4915.24740,N,12314.09048,W,1,09,1.03,87.2,M,-17.5,M,,*55
$GPGSA,A,3,22,14,13,17,30,15,19,21,23,,,,1.70,1.03,1.35*0D
$GPGSV,3,1,11,02,23,063,,13,54,249,34,14,76,055,31,15,32,293,42*7B
$GPGSV,3,2,11,17,54,165,32,19,29,187,26,21,19,052,20,22,80,279,22*7F
$GPGSV,3,3,11,23,05,328,20,24,09,304,14,30,52,128,33*44
$GPGLL,4915.24740,N,12314.09048,W,002140.80,A,A*78
$GPRMC,002141.00,A,4915.24729,N,12314.09054,W,0.492,,081223,,,A*6F
$GPVTG,,T,,M,0.492,N,0.912,K,A*26
$GPGGA,002141.00,4915.24729,N,12314.09054,W,1,09,1.03,87.4,M,-17.5,M,,*58
$GPGSA,A,3,22,14,13,17,30,15,19,21,23,,,,1.70,1.03,1.35*0D
$GPGSV,3,1,11,02,23,063,,13,54,249,34,14,76,055,31,15,32,293,42*7B
$GPGSV,3,2,11,17,54,165,32,19,29,187,30,21,19,052,20,22,80,279,22*78
$GPGSV,3,3,11,23,05,328,20,24,09,304,14,30,52,128,29*4F
$GPGLL,4915.24729,N,12314.09054,W,002141.00,A,A*73
$GPRMC,002141.20,A,4915.24721,N,12314.09062,W,0.377,,081223,,,A*6C
$GPVTG,,T,,M,0.377,N,0.698,K,A*27
$GPGGA,002141.20,4915.24721,N,12314.09062,W,1,09,1.03,87.5,M,-17.5,M,,*56
$GPGSA,A,3,22,14,13,17,30,15,19,21,23,,,,1.70,1.03,1.35*0D
$GPGSV,3,1,11,02,23,063,,13,54,249,30,14,76,055,32,15,32,293,37*7E
$GPGSV,3,2,11,17,54,165,35,19,29,187,30,21,19,052,20,22,80,279,22*7F
$GPGSV,3,3,11,23,05,328,20,24,09,304,14,30,52,128,29*4F
$GPGLL,4915.24721,N,12314.09062,W,002141.20,A,A*7C
$GPRMC,002141.40,A,4915.24712,N,12314.09072,W,0.305,,081223,,,A*6E
$GPVTG,,T,,M,0.305,N,0.564,K,A*22
$GPGGA,002141.40,4915.24712,N,12314.09072,W,1,09,1.03,87.7,M,-17.5,M,,*53
$GPGSA,A,3,22,14,13,17,30,15,19,21,23,,,,1.70,1.03,1.35*0D
$GPGSV,3,1,11,02,23,063,,13,54,249,24,14,76,055,32,15,32,293,37*7B
$GPGSV,3,2,11,17,54,165,35,19,29,187,30,21,19,052,20,22,80,279,29*74
$GPGSV,3,3,11,23,05,328,20,24,09,304,14,30,52,128,29*4F
$GPGLL,4915.24712,N,12314.09072,W,002141.40,A,A*7B
$GPRMC,002141.60,A,4915.24701,N,12314.09089,W,0.097,,081223,,,A*62
$GPVTG,,T,,M,0.097,N,0.179,K,A*22
$GPGGA,002141.60,4915.24701,N,12314.09089,W,1,09,1.03,87.9,M,-17.5,M,,*59
$GPGSA,A,3,22,14,13,17,30,15,19,21,23,,,,1.70,1.03,1.35*0D
$GPGSV,3,1,11,02,23,063,,13,54,249,24,14,76,055,28,15,32,293,37*70
$GPGSV,3,2,11,17,54,165,32,19,29,187,30,21,19,052,20,22,80,279,30*7B
$GPGSV,3,3,11,23,05,328,20,24,09,304,14,30,52,128,29*4F
$GPGLL,4915.24701,N,12314.09089,W,002141.60,A,A*7F
$GPRMC,002141.80,A,4915.24681,N,12314.09118,W,0.841,,081223,,,A*6F
$GPVTG,,T,,M,0.841,N,1.557,K,A*28
$GPGGA,002141.80,4915.24681,N,12314.09118,W,1,09,1.03,88.5,M,-17.5,M,,*54
$GPGSA,A,3,22,14,13,17,30,15,19,21,23,,,,1.70,1.03,1.35*0D
$GPGSV,3,1,11,02,23,063,,13,54,249,25,14,76,055,28,15,32,293,37*71
$GPGSV,3,2,11,17,54,165,31,19,29,187,30,21,19,052,21,22,81,279,30*78
$GPGSV,3,3,11,23,05,328,20,24,09,304,15,30,52,128,28*4F
$GPGLL,4915.24681,N,12314.09118,W,002141.80,A,A*71
$GPRMC,002142.00,A,4915.24676,N,12314.09129,W,0.808,,081223,,,A*63
$GPVTG,,T,,M,0.808,N,1.497,K,A*28
$GPGGA,002142.00,4915.24676,N,12314.09129,W,1,09,1.03,88.4,M,-17.5,M,,*54
$GPGSA,A,3,22,14,13,17,30,15,19,21,23,,,,1.70,1.03,1.35*0D
$GPGSV,3,1,12,02,23,063,,07,,,31,13,54,249,32,14,76,055,33*42
$GPGSV,3,2,12,15,32,293,44,17,54,165,31,19,29,187,30,21,19,052,21*70
$GPGSV,3,3,12,22,81,279,30,23,05,328,19,24,09,304,15,30,52,128,28*70
$GPGLL,4915.24676,N,12314.09129,W,002142.00,A,A*70
$GPRMC,002142.20,A,4915.24674,N,12314.09128,W,0.868,,081223,,,A*64
$GPVTG,,T,,M,0.868,N,1.607,K,A*25
$GPGGA,002142.20,4915.24674,N,12314.09128,W,1,09,1.03,88.1,M,-17.5,M,,*50
$GPGSA,A,3,22,14,13,17,30,15,19,21,23,,,,1.70,1.03,1.35*0D
$GPGSV,3,1,12,02,23,063,,07,,,34,13,54,249,39,14,76,055,33*4C
$GPGSV,3,2,12,15,32,293,46,17,54,165,31,19,29,187,30,21,19,052,21*72
$GPGSV,3,3,12,22,81,279,36,23,05,328,19,24,09,304,16,30,52,128,28*75
$GPGLL,4915.24674,N,12314.09128,W,002142.20,A,A*71
$GPRMC,002142.40,A,4915.24672,N,12314.09124,W,0.965,,081223,,,A*64
$GPVTG,,T,,M,0.965,N,1.786,K,A*21
$GPGGA,002142.40,4915.24672,N,12314.09124,W,1,09,1.38,87.6,M,-17.5,M,,*5C
$GPGSA,A,3,22,14,13,17,30,15,19,21,23,,,,2.03,1.38,1.48*08
$GPGSV,3,1,12,02,23,063,,07,,,34,13,54,249,39,14,76,055,33*4C
$GPGSV,3,2,12,15,32,293,48,17,54,165,31,19,29,187,30,21,19,052,20*7D
$GPGSV,3,3,12,22,81,279,38,23,05,328,20,24,09,304,17,30,52,128,28*70
$GPGLL,4915.24672,N,12314.09124,W,002142.40,A,A*7D
$GPRMC,002142.60,A,4915.24669,N,12314.09131,W,0.933,,081223,,,A*6B
$GPVTG,,T,,M,0.933,N,1.728,K,A*26
$GPGGA,002142.60,4915.24669,N,12314.09131,W,1,09,1.38,87.4,M,-17.5,M,,*52
$GPGSA,A,3,22,14,13,17,30,15,19,21,23,,,,2.03,1.38,1.48*08
$GPGSV,3,1,12,02,23,063,,07,,,33,13,54,249,29,14,76,055,33*4A
$GPGSV,3,2,12,15,32,293,41,17,54,165,26,19,29,187,34,21,19,052,20*76
$GPGSV,3,3,12,22,81,279,36,23,05,328,21,24,09,304,17,30,52,128,33*75
$GPGLL,4915.24669,N,12314.09131,W,002142.60,A,A*71
$GPRMC,002142.80,A,4915.24670,N,12314.09131,W,0.666,,081223,,,A*62
$GPVTG,,T,,M,0.666,N,1.233,K,A*26
$GPGGA,002142.80,4915.24670,N,12314.09131,W,1,09,1.38,87.3,M,-17.5,M,,*53
$GPGSA,A,3,22,14,13,17,30,15,19,21,23,,,,2.03,1.38,1.48*08
$GPGSV,3,1,12,02,23,063,,07,,,33,13,54,249,30,14,76,055,36*47
$GPGSV,3,2,12,15,32,293,39,17,54,165,35,19,29,187,34,21,19,052,19*71
$GPGSV,3,3,12,22,81,279,29,23,05,328,21,24,09,304,17,30,52,128,33*7B
$GPGLL,4915.24670,N,12314.09131,W,002142.80,A,A*77
$GPRMC,002143.00,A,4915.24673,N,12314.09132,W,0.568,,081223,,,A*66
$GPVTG,,T,,M,0.568,N,1.052,K,A*2E
$GPGGA,002143.00,4915.24673,N,12314.09132,W,1,09,1.38,87.2,M,-17.5,M,,*5B
$GPGSA,A,3,22,14,13,17,30,15,19,21,23,,,,2.03,1.38,1.48*08
$GPGSV,3,1,12,02,23,063,,07,,,33,13,54,249,30,14,76,055,33*42
$GPGSV,3,2,12,15,32,293,39,17,54,165,34,19,29,187,34,21,19,052,19*70
$GPGSV,3,3,12,22,81,279,29,23,05,328,20,24,09,304,17,30,52,128,32*7B
$GPGLL,4915.24673,N,12314.09132,W,002143.00,A,A*7E
$GPRMC,002143.20,A,4915.24680,N,12314.09132,W,0.472,,081223,,,A*62
$GPVTG,,T,,M,0.472,N,0.874,K,A*29
$GPGGA,002143.20,4915.24680,N,12314.09132,W,1,09,1.38,87.3,M,-17.5,M,,*54
$GPGSA,A,3,22,14,13,17,30,15,19,21,23,,,,2.03,1.38,1.48*08
$GPGSV,3,1,12,02,23,063,,07,,,33,13,54,249,34,14,76,055,29*4D
$GPGSV,3,2,12,15,32,293,37,17,54,165,35,19,29,187,23,21,19,052,19*79
$GPGSV,3,3,12,22,81,279,28,23,05,328,20,24,09,304,17,30,52,128,33*7B
$GPGLL,4915.24680,N,12314.09132,W,002143.20,A,A*70
$GPRMC,002143.40,A,4915.24687,N,12314.09140,W,0.833,,081223,,,A*6F
$GPVTG,,T,,M,0.833,N,1.542,K,A*29
$GPGGA,002143.40,4915.24687,N,12314.09140,W,1,09,1.03,87.6,M,-17.5,M,,*5D
$GPGSA,A,3,22,14,13,17,30,15,19,21,23,,,,1.70,1.03,1.35*0D
$GPGSV,3,1,12,02,23,063,,07,,,33,13,54,249,34,14,76,055,29*4D
$GPGSV,3,2,12,15,32,293,30,17,54,165,34,19,29,187,23,21,19,052,18*7E
$GPGSV,3,3,12,22,81,279,28,23,05,328,20,24,09,304,17,30,51,128,33*78
$GPGLL,4915.24687,N,12314.09140,W,002143.40,A,A*74
$GPRMC,002143.60,A,4915.24684,N,12314.09145,W,0.505,,081223,,,A*63
$GPVTG,,T,,M,0.505,N,0.936,K,A*2F
$GPGGA,002143.60,4915.24684,N,12314.09145,W,1,09,1.03,87.6,M,-17.5,M,,*59
$GPGSA,A,3,22,14,13,17,30,15,19,21,23,,,,1.70,1.03,1.35*0D
$GPGSV,3,1,12,02,23,063,,07,,,33,13,54,249,29,14,76,055,36*4F
$GPGSV,3,2,12,15,32,293,37,17,54,165,35,19,29,187,30,21,19,052,18*7A
$GPGSV,3,3,12,22,81,279,28,23,05,328,20,24,09,304,16,30,51,128,33*79
$GPGLL,4915.24684,N,12314.09145,W,002143.60,A,A*70
$GPRMC,002143.80,A,4915.24682,N,12314.09144,W,0.373,,081223,,,A*6D
$GPVTG,,T,,M,0.373,N,0.691,K,A*2A
$GPGGA,002143.80,4915.24682,N,12314.09144,W,1,09,1.03,87.1,M,-17.5,M,,*57
$GPGSA,A,3,22,14,13,17,30,15,19,21,23,,,,1.70,1.03,1.35*0D
$GPGSV,3,1,12,02,23,063,,07,,,29,13,54,249,29,14,76,055,36*44
$GPGSV,3,2,12,15,32,293,39,17,54,165,35,19,29,187,30,21,19,052,18*74
$GPGSV,3,3,12,22,81,279,28,23,05,328,21,24,09,304,16,30,51,128,33*78
$GPGLL,4915.24682,N,12314.09144,W,002143.80,A,A*79
$GPRMC,002144.00,A,4915.24682,N,12314.09143,W,0.216,,081223,,,A*67
$GPVTG,,T,,M,0.216,N,0.400,K,A*22
$GPGGA,002144.00,4915.24682,N,12314.09143,W,1,09,1.03,86.9,M,-17.5,M,,*56
$GPGSA,A,3,22,14,13,17,30,15,19,21,23,,,,1.70,1.03,1.35*0D
$GPGSV,3,1,12,02,23,063,,07,,,29,13,54,249,39,14,76,055,36*45
$GPGSV,3,2,12,15,32,293,45,17,54,165,26,19,29,187,34,21,19,052,19*78
$GPGSV,3,3,12,22,81,279,29,23,05,328,20,24,09,304,,30,51,128,33*7F
$GPGLL,4915.24682,N,12314.09143,W,002144.00,A,A*71
$GPRMC,002144.20,A,4915.24676,N,12314.09151,W,0.276,,081223,,,A*6B
$GPVTG,,T,,M,0.276,N,0.511,K,A*25
$GPGGA,002144.20,4915.24676,N,12314.09151,W,1,09,1.03,87.1,M,-17.5,M,,*55
$GPGSA,A,3,22,14,13,17,30,15,19,21,23,,,,1.70,1.03,1.35*0D
$GPGSV,3,1,12,02,23,063,,07,,,33,13,54,249,42,14,76,055,33*47
$GPGSV,3,2,12,15,32,293,45,17,54,165,26,19,29,187,29,21,19,052,27*79
$GPGSV,3,3,12,22,81,279,28,23,05,328,20,24,09,304,,30,51,128,36*7B
$GPGLL,4915.24676,N,12314.09151,W,002144.20,A,A*7B
$GPRMC,002144.40,A,4915.24670,N,12314.09156,W,0.227,,081223,,,A*68
$GPVTG,,T,,M,0.227,N,0.421,K,A*23
$GPGGA,002144.40,4915.24670,N,12314.09156,W,1,09,1.03,87.2,M,-17.5,M,,*51
$GPGSA,A,3,22,14,13,17,30,15,19,21,23,,,,1.70,1.03,1.35*0D
$GPGSV,3,1,12,02,23,063,,07,,,33,13,54,249,42,14,76,055,32*46
$GPGSV,3,2,12,15,32,293,46,17,54,165,27,19,29,187,29,21,19,052,27*7B
$GPGSV,3,3,12,22,81,279,32,23,05,328,20,24,09,304,,30,51,128,32*74
$GPGLL,4915.24670,N,12314.09156,W,002144.40,A,A*7C
$GPRMC,002144.60,A,4915.24656,N,12314.09168,W,0.116,,081223,,,A*62
$GPVTG,,T,,M,0.116,N,0.215,K,A*23
$GPGGA,002144.60,4915.24656,N,12314.09168,W,1,09,1.03,87.3,M,-17.5,M,,*5B
$GPGSA,A,3,22,14,13,17,30,15,19,21,23,,,,1.70,1.03,1.35*0D
$GPGSV,3,1,12,02,23,063,,07,,,33,13,54,249,42,14,76,055,32*46
$GPGSV,3,2,12,15,32,293,46,17,54,165,26,19,29,187,29,21,19,052,28*75
$GPGSV,3,3,12,22,81,279,36,23,05,328,19,24,09,304,,30,51,128,32*7A
$GPGLL,4915.24656,N,12314.09168,W,002144.60,A,A*77
$GPRMC,002144.80,A,4915.24646,N,12314.09188,W,0.117,,081223,,,A*62
$GPVTG,,T,,M,0.117,N,0.217,K,A*20
$GPGGA,002144.80,4915.24646,N,12314.09188,W,1,09,1.03,87.5,M,-17.5,M,,*5C
$GPGSA,A,3,22,14,13,17,30,15,19,21,23,,,,1.70,1.03,1.35*0D
$GPGSV,3,1,12,02,23,063,,07,,,33,13,54,249,36,14,76,055,33*44
$GPGSV,3,2,12,15,32,293,44,17,54,165,31,19,29,187,29,21,19,052,27*7E
$GPGSV,3,3,12,22,81,279,33,23,05,328,19,24,09,304,,30,51,128,35*78
$GPGLL,4915.24646,N,12314.09188,W,002144.80,A,A*76
$GPRMC,002145.00,A,4915.24642,N,12314.09200,W,0.341,,081223,,,A*6D
$GPVTG,,T,,M,0.341,N,0.631,K,A*21
$GPGGA,002145.00,4915.24642,N,12314.09200,W,1,09,1.03,87.4,M,-17.5,M,,*53
$GPGSA,A,3,22,14,13,17,30,15,19,21,23,,,,1.70,1.03,1.35*0D
$GPGSV,3,1,12,02,23,063,,07,,,33,13,54,249,37,14,76,055,36*40
$GPGSV,3,2,12,15,32,293,40,17,54,165,32,19,29,187,30,21,19,052,18*7D
$GPGSV,3,3,12,22,81,279,32,23,05,328,20,24,09,304,,30,51,128,39*7F
$GPGLL,4915.24642,N,12314.09200,W,002145.00,A,A*78
$GPRMC,002145.20,A,4915.24648,N,12314.09205,W,0.449,,081223,,,A*6F
$GPVTG,,T,,M,0.449,N,0.832,K,A*23
$GPGGA,002145.20,4915.24648,N,12314.09205,W,1,09,1.03,87.3,M,-17.5,M,,*59
$GPGSA,A,3,22,14,13,17,30,15,19,21,23,,,,1.70,1.03,1.35*0D
$GPGSV,3,1,12,02,23,063,,07,,,37,13,54,249,37,14,76,055,32*40
$GPGSV,3,2,12,15,32,293,33,17,54,165,37,19,29,187,30,21,19,052,18*7C
$GPGSV,3,3,12,22,81,279,36,23,05,328,28,24,09,304,,30,51,128,30*7A
$GPGLL,4915.24648,N,12314.09205,W,002145.20,A,A*75
$GPRMC,002145.40,A,4915.24647,N,12314.09216,W,0.105,,081223,,,A*69
$GPVTG,,T,,M,0.105,N,0.194,K,A*2B
$GPGGA,002145.40,4915.24647,N,12314.09216,W,1,09,1.03,87.2,M,-17.5,M,,*53
$GPGSA,A,3,22,14,13,17,30,15,19,21,23,,,,1.70,1.03,1.35*0D
$GPGSV,3,1,12,02,23,063,,07,,,34,13,54,249,39,14,76,055,35*4A
$GPGSV,3,2,12,15,32,293,33,17,54,165,39,19,29,187,34,21,19,052,18*76
$GPGSV,3,3,12,22,81,279,36,23,05,328,29,24,09,304,,30,51,128,37*7C
$GPGLL,4915.24647,N,12314.09216,W,002145.40,A,A*7E
$GPRMC,002145.60,A,4915.24649,N,12314.09233,W,0.284,,081223,,,A*68
$GPVTG,,T,,M,0.284,N,0.526,K,A*2C
$GPGGA,002145.60,4915.24649,N,12314.09233,W,1,09,1.03,87.1,M,-17.5,M,,*5B
$GPGSA,A,3,22,14,13,17,30,15,19,21,23,,,,1.70,1.03,1.35*0D
$GPGSV,3,1,12,02,23,063,,07,,,34,13,54,249,39,14,76,055,33*4C
$GPGSV,3,2,12,15,32,293,44,17,54,165,40,19,29,187,23,21,19,052,18*7E
$GPGSV,3,3,12,22,81,279,36,23,05,328,29,24,09,304,,30,51,128,37*7C
$GPGLL,4915.24649,N,12314.09233,W,002145.60,A,A*75
$GPRMC,002145.80,A,4915.24652,N,12314.09229,W,0.180,,081223,,,A*60
$GPVTG,,T,,M,0.180,N,0.334,K,A*2E
$GPGGA,002145.80,4915.24652,N,12314.09229,W,1,09,1.38,86.7,M,-17.5,M,,*5B
$GPGSA,A,3,22,14,13,17,30,15,19,21,23,,,,2.03,1.38,1.48*08
$GPGSV,3,1,12,02,23,063,,07,,,34,13,54,249,39,14,76,055,33*4C
$GPGSV,3,2,12,15,32,293,42,17,54,165,32,19,29,187,30,21,19,052,19*7E
$GPGSV,3,3,12,22,81,279,38,23,05,328,29,24,09,304,,30,51,128,34*71
$GPGLL,4915.24652,N,12314.09229,W,002145.80,A,A*7A
$GPRMC,002146.00,A,4915.24639,N,12314.09241,W,0.246,,081223,,,A*61
$GPVTG,,T,,M,0.246,N,0.455,K,A*27
$GPGGA,002146.00,4915.24639,N,12314.09241,W,1,09,1.38,86.1,M,-17.5,M,,*55
$GPGSA,A,3,22,14,13,17,30,15,19,21,23,,,,2.03,1.38,1.48*08
$GPGSV,3,1,12,02,23,063,,07,,,30,13,54,249,37,14,76,055,40*42
$GPGSV,3,2,12,15,32,293,40,17,54,165,40,19,29,187,31,21,19,052,19*78
$GPGSV,3,3,12,22,81,279,32,23,05,328,29,24,09,304,,30,51,128,28*76
$GPGLL,4915.24639,N,12314.09241,W,002146.00,A,A*72
$GPRMC,002146.20,A,4915.24629,N,12314.09252,W,0.747,,081223,,,A*64
$GPVTG,,T,,M,0.747,N,1.383,K,A*2E
$GPGGA,002146.20,4915.24629,N,12314.09252,W,1,09,1.38,85.6,M,-17.5,M,,*50
$GPGSA,A,3,22,14,13,17,30,15,19,21,23,,,,2.03,1.38,1.48*08
$GPGSV,3,1,12,02,23,063,,07,,,30,13,54,249,39,14,76,055,37*4C
$GPGSV,3,2,12,15,32,293,31,17,54,165,36,19,29,187,30,21,19,052,19*7E
$GPGSV,3,3,12,22,81,279,36,23,05,328,23,24,09,304,,30,51,128,33*72
$GPGLL,4915.24629,N,12314.09252,W,002146.20,A,A*73
$GPRMC,002146.40,A,4915.24615,N,12314.09261,W,0.489,,081223,,,A*6C
$GPVTG,,T,,M,0.489,N,0.906,K,A*29
$GPGGA,002146.40,4915.24615,N,12314.09261,W,1,09,1.38,84.9,M,-17.5,M,,*57
$GPGSA,A,3,22,14,13,17,30,15,19,21,23,,,,2.03,1.38,1.48*08
$GPGSV,3,1,12,02,23,063,,07,,,34,13,54,249,41,14,76,055,39*49
$GPGSV,3,2,12,15,32,293,34,17,54,165,32,19,29,187,25,21,19,052,19*7B
$GPGSV,3,3,12,22,81,279,37,23,05,328,24,24,09,304,,30,51,128,29*7F
$GPGLL,4915.24615,N,12314.09261,W,002146.40,A,A*7A
$GPRMC,002146.60,A,4915.24613,N,12314.09261,W,0.376,,081223,,,A*6F
$GPVTG,,T,,M,0.376,N,0.695,K,A*2B
$GPGGA,002146.60,4915.24613,N,12314.09261,W,1,08,1.41,84.6,M,-17.5,M,,*53
$GPGSA,A,3,22,14,13,30,15,19,21,23,,,,,2.04,1.41,1.49*06
$GPGSV,3,1,12,02,23,063,,07,,,34,13,54,249,41,14,76,055,34*44
$GPGSV,3,2,12,15,32,293,35,17,54,165,,19,29,187,25,21,19,052,20*71
$GPGSV,3,3,12,22,81,279,35,23,05,328,24,24,09,304,,30,51,128,36*73
$GPGLL,4915.24613,N,12314.09261,W,002146.60,A,A*7E
$GPRMC,002146.80,A,4915.24604,N,12314.09274,W,0.291,,081223,,,A*6B
$GPVTG,,T,,M,0.291,N,0.539,K,A*26
$GPGGA,002146.80,4915.24604,N,12314.09274,W,1,08,1.06,84.8,M,-17.5,M,,*52
$GPGSA,A,3,22,14,13,30,15,19,21,23,,,,,1.72,1.06,1.35*0C
$GPGSV,3,1,12,02,23,063,,07,,,33,13,54,249,35,14,76,055,34*40
$GPGSV,3,2,12,15,32,293,37,17,54,165,,19,29,187,26,21,19,052,21*71
$GPGSV,3,3,12,22,81,279,32,23,05,328,24,24,09,304,,30,51,128,36*74
$GPGLL,4915.24604,N,12314.09274,W,002146.80,A,A*72
$GPRMC,002147.00,A,4915.24598,N,12314.09292,W,0.266,,081223,,,A*64
$GPVTG,,T,,M,0.266,N,0.493,K,A*2F
$GPGGA,002147.00,4915.24598,N,12314.09292,W,1,08,1.06,85.1,M,-17.5,M,,*5D
$GPGSA,A,3,22,14,13,30,15,19,21,23,,,,,1.72,1.06,1.35*0C
$GPGSV,3,1,12,02,23,063,,07,,,29,13,54,249,27,14,76,055,31*4D
$GPGSV,3,2,12,15,32,293,30,17,54,165,,19,29,187,26,21,19,052,21*76
$GPGSV,3,3,12,22,81,279,32,23,05,328,23,24,09,304,,30,51,128,36*73
$GPGLL,4915.24598,N,12314.09292,W,002147.00,A,A*75
$GPRMC,002147.20,A,4915.24596,N,12314.09298,W,0.185,,081223,,,A*6C
$GPVTG,,T,,M,0.185,N,0.343,K,A*2B
$GPGGA,002147.20,4915.24596,N,12314.09298,W,1,08,1.06,85.5,M,-17.5,M,,*5F
$GPGSA,A,3,22,14,13,30,15,19,21,23,,,,,1.72,1.06,1.35*0C
$GPGSV,3,1,12,02,23,063,,07,,,29,13,54,249,32,14,76,055,31*49
$GPGSV,3,2,12,15,32,293,36,17,54,165,,19,29,187,31,21,19,052,21*76
$GPGSV,3,3,12,22,81,279,32,23,05,328,23,24,09,304,,30,51,128,36*73
$GPGLL,4915.24596,N,12314.09298,W,002147.20,A,A*73
$GPRMC,002147.40,A,4915.24592,N,12314.09311,W,0.188,,081223,,,A*63
$GPVTG,,T,,M,0.188,N,0.349,K,A*2C
$GPGGA,002147.40,4915.24592,N,12314.09311,W,1,08,1.06,85.8,M,-17.5,M,,*50
$GPGSA,A,3,22,14,13,30,15,19,21,23,,,,,1.72,1.06,1.35*0C
$GPGSV,3,1,12,02,23,063,,07,,,29,13,54,249,32,14,76,055,35*4D
$GPGSV,3,2,12,15,32,293,38,17,54,165,,19,29,187,31,21,19,052,21*78
$GPGSV,3,3,12,22,81,279,28,23,05,328,23,24,09,304,,30,51,128,36*78
$GPGLL,4915.24592,N,12314.09311,W,002147.40,A,A*71
$GPRMC,002147.60,A,4915.24581,N,12314.09324,W,0.130,,081223,,,A*66
$GPVTG,,T,,M,0.130,N,0.241,K,A*26
$GPGGA,002147.60,4915.24581,N,12314.09324,W,1,09,1.06,85.5,M,-17.5,M,,*5A
$GPGSA,A,3,22,14,13,17,30,15,19,21,23,,,,1.72,1.06,1.35*0A
$GPGSV,3,1,12,02,23,063,,07,,,28,13,54,249,35,14,76,055,39*47
$GPGSV,3,2,12,15,32,293,36,17,54,165,39,19,29,187,31,21,19,052,22*7F
$GPGSV,3,3,12,22,81,279,28,23,05,328,23,24,09,304,,30,51,128,36*78
$GPGLL,4915.24581,N,12314.09324,W,002147.60,A,A*77
$GPRMC,002147.80,A,4915.24570,N,12314.09336,W,0.054,,081223,,,A*66
$GPVTG,,T,,M,0.054,N,0.101,K,A*22
$GPGGA,002147.80,4915.24570,N,12314.09336,W,1,09,1.03,85.1,M,-17.5,M,,*58
$GPGSA,A,3,22,14,13,17,30,15,19,21,23,,,,1.70,1.03,1.35*0D
$GPGSV,3,1,12,02,23,063,,07,,,28,13,54,249,35,14,76,055,39*47
$GPGSV,3,2,12,15,32,293,33,17,54,165,37,19,29,187,30,21,19,052,22*75
$GPGSV,3,3,12,22,81,279,32,23,05,328,23,24,09,304,,30,51,128,36*73
$GPGLL,4915.24570,N,12314.09336,W,002147.80,A,A*74
$GPRMC,002148.00,A,4915.24552,N,12314.09362,W,0.051,,081223,,,A*65
$GPVTG,,T,,M,0.051,N,0.095,K,A*2B
$GPGGA,002148.00,4915.24552,N,12314.09362,W,1,09,1.03,85.0,M,-17.5,M,,*5F
$GPGSA,A,3,22,14,13,17,30,15,19,21,23,,,,1.70,1.03,1.35*0D
$GPGSV,3,1,12,02,23,063,,07,,,32,13,54,249,26,14,76,055,39*4E
$GPGSV,3,2,12,15,32,293,36,17,54,165,39,19,29,187,24,21,19,052,23*7A
$GPGSV,3,3,12,22,81,279,38,23,05,328,22,24,09,304,,30,51,128,38*76
$GPGLL,4915.24552,N,12314.09362,W,002148.00,A,A*72
$GPRMC,002148.20,A,4915.24534,N,12314.09384,W,0.202,,081223,,,A*6B
$GPVTG,,T,,M,0.202,N,0.374,K,A*23
$GPGGA,002148.20,4915.24534,N,12314.09384,W,1,09,1.03,84.9,M,-17.5,M,,*5D
$GPGSA,A,3,22,14,13,17,30,15,19,21,23,,,,1.70,1.03,1.35*0D
$GPGSV,3,1,12,02,23,063,,07,,,36,13,54,249,27,14,76,055,39*4B
$GPGSV,3,2,12,15,32,293,33,17,54,165,39,19,29,187,25,21,19,052,23*7E
$GPGSV,3,3,12,22,81,279,31,23,05,328,22,24,09,304,,30,51,128,33*74
$GPGLL,4915.24534,N,12314.09384,W,002148.20,A,A*78
$GPRMC,002148.40,A,4915.24533,N,12314.09393,W,0.160,,081223,,,A*6B
$GPVTG,,T,,M,0.160,N,0.295,K,A*2A
$GPGGA,002148.40,4915.24533,N,12314.09393,W,1,09,1.03,85.1,M,-17.5,M,,*53
$GPGSA,A,3,22,14,13,17,30,15,19,21,23,,,,1.70,1.03,1.35*0D
$GPGSV,3,1,12,02,23,063,,07,,,32,13,54,249,31,14,76,055,34*45
$GPGSV,3,2,12,15,32,293,36,17,54,165,29,19,29,187,25,21,19,052,23*7A
$GPGSV,3,3,12,22,81,279,31,23,05,328,23,24,09,304,,30,51,128,40*71
$GPGLL,4915.24533,N,12314.09393,W,002148.40,A,A*7F
$GPRMC,002148.60,A,4915.24540,N,12314.09388,W,0.409,,081223,,,A*6D
$GPVTG,,T,,M,0.409,N,0.758,K,A*24
$GPGGA,002148.60,4915.24540,N,12314.09388,W,1,09,1.03,85.3,M,-17.5,M,,*5D
$GPGSA,A,3,22,14,13,17,30,15,19,21,23,,,,1.70,1.03,1.35*0D
$GPGSV,3,1,12,02,23,063,,07,,,28,13,54,249,34,14,76,055,34*4B
$GPGSV,3,2,12,15,32,293,33,17,54,165,38,19,29,187,31,21,19,052,23*7A
$GPGSV,3,3,12,22,81,279,35,23,05,328,23,24,09,304,,30,51,128,35*77
$GPGLL,4915.24540,N,12314.09388,W,002148.60,A,A*73
$GPRMC,002148.80,A,4915.24542,N,12314.09396,W,0.276,,081223,,,A*60
$GPVTG,,T,,M,0.276,N,0.512,K,A*26
$GPGGA,002148.80,4915.24542,N,12314.09396,W,1,09,1.03,85.7,M,-17.5,M,,*5A
$GPGSA,A,3,22,14,13,17,30,15,19,21,23,,,,1.70,1.03,1.35*0D
$GPGSV,3,1,12,02,23,063,,07,,,32,13,54,249,30,14,76,055,36*46
$GPGSV,3,2,12,15,32,293,33,17,54,165,35,19,29,187,34,21,19,052,23*72
$GPGSV,3,3,12,22,81,279,30,23,05,328,23,24,09,304,,30,51,128,35*72
$GPGLL,4915.24542,N,12314.09396,W,002148.80,A,A*70
$GPRMC,002149.00,A,4915.24544,N,12314.09402,W,0.525,,081223,,,A*64
$GPVTG,,T,,M,0.525,N,0.973,K,A*2C
$GPGGA,002149.00,4915.24544,N,12314.09402,W,1,09,1.03,86.1,M,-17.5,M,,*5A
$GPGSA,A,3,22,14,13,17,30,15,19,21,23,,,,1.70,1.03,1.35*0D
$GPGSV,3,1,12,02,23,063,,07,,,35,13,54,249,30,14,76,055,34*43
$GPGSV,3,2,12,15,32,293,38,17,54,165,35,19,29,187,34,21,19,052,23*79
$GPGSV,3,3,12,22,81,279,34,23,05,328,22,24,09,304,,30,51,128,35*77
$GPGLL,4915.24544,N,12314.09402,W,002149.00,A,A*75
$GPRMC,002149.20,A,4915.24546,N,12314.09401,W,0.673,,081223,,,A*67
$GPVTG,,T,,M,0.673,N,1.246,K,A*20
$GPGGA,002149.20,4915.24546,N,12314.09401,W,1,09,1.03,86.2,M,-17.5,M,,*5A
$GPGSA,A,3,22,14,13,17,30,15,19,21,23,,,,1.70,1.03,1.35*0D
$GPGSV,3,1,12,02,23,063,,07,,,35,13,54,249,44,14,76,055,36*42
$GPGSV,3,2,12,15,32,293,32,17,54,165,33,19,29,187,34,21,19,052,23*75
$GPGSV,3,3,12,22,81,279,36,23,05,328,22,24,09,304,,30,51,128,36*76
$GPGLL,4915.24546,N,12314.09401,W,002149.20,A,A*76
$GPRMC,002149.40,A,4915.24545,N,12314.09401,W,0.694,,081223,,,A*6B
$GPVTG,,T,,M,0.694,N,1.285,K,A*26
$GPGGA,002149.40,4915.24545,N,12314.09401,W,1,09,1.03,86.3,M,-17.5,M,,*5E
$GPGSA,A,3,22,14,13,17,30,15,19,21,23,,,,1.70,1.03,1.35*0D
$GPGSV,3,1,12,02,23,063,,07,,,38,13,54,249,40,14,76,055,32*4F
$GPGSV,3,2,12,15,32,293,42,17,54,165,33,19,29,187,30,21,19,052,23*76
$GPGSV,3,3,12,22,81,279,36,23,05,328,21,24,09,304,,30,51,128,31*72
$GPGLL,4915.24545,N,12314.09401,W,002149.40,A,A*73
$GPRMC,002149.60,A,4915.24550,N,12314.09408,W,0.526,,081223,,,A*6E
$GPVTG,,T,,M,0.526,N,0.974,K,A*28
$GPGGA,002149.60,4915.24550,N,12314.09408,W,1,09,1.03,86.4,M,-17.5,M,,*56
$GPGSA,A,3,22,14,13,17,30,15,19,21,23,,,,1.70,1.03,1.35*0D
$GPGSV,3,1,12,02,23,063,,07,,,36,13,54,249,31,14,76,055,27*43
$GPGSV,3,2,12,15,32,293,40,17,54,165,38,19,29,187,22,21,19,052,22*7D
$GPGSV,3,3,12,22,81,279,28,23,05,328,21,24,09,304,,30,51,128,31*7D
$GPGLL,4915.24550,N,12314.09408,W,002149.60,A,A*7C
$GPRMC,002149.80,A,4915.24553,N,12314.09414,W,0.450,,081223,,,A*6E
$GPVTG,,T,,M,0.450,N,0.833,K,A*2A
$GPGGA,002149.80,4915.24553,N,12314.09414,W,1,09,1.03,86.5,M,-17.5,M,,*57
$GPGSA,A,3,22,14,13,17,30,15,19,21,23,,,,1.70,1.03,1.35*0D
$GPGSV,3,1,12,02,23,063,,07,,,33,13,54,249,34,14,76,055,32*47
$GPGSV,3,2,12,15,32,293,40,17,54,165,38,19,29,187,23,21,19,052,23*7D
$GPGSV,3,3,12,22,81,279,33,23,05,328,20,24,09,304,,30,51,128,35*72
$GPGLL,4915.24553,N,12314.09414,W,002149.80,A,A*7C
$GPRMC,002150.00,A,4915.24549,N,12314.09423,W,0.426,,081223,,,A*60
$GPVTG,,T,,M,0.426,N,0.788,K,A*24
$GPGGA,002150.00,4915.24549,N,12314.09423,W,1,09,1.03,86.7,M,-17.5,M,,*5A
$GPGSA,A,3,22,14,13,17,30,15,19,21,23,,,,1.70,1.03,1.35*0D
$GPGSV,3,1,12,02,23,063,,07,,,29,13,54,249,31,14,76,055,35*4E
$GPGSV,3,2,12,15,32,293,43,17,54,165,33,19,29,187,30,21,19,052,23*77
$GPGSV,3,3,12,22,81,279,36,23,05,328,20,24,09,304,,30,51,128,38*7A
$GPGLL,4915.24549,N,12314.09423,W,002150.00,A,A*73
$GPRMC,002150.20,A,4915.24552,N,12314.09427,W,0.351,,081223,,,A*6B
$GPVTG,,T,,M,0.351,N,0.651,K,A*26
$GPGGA,002150.20,4915.24552,N,12314.09427,W,1,09,1.03,86.9,M,-17.5,M,,*58
$GPGSA,A,3,22,14,13,17,30,15,19,21,23,,,,1.70,1.03,1.35*0D
$GPGSV,3,1,12,02,23,063,,07,,,39,13,54,249,31,14,76,055,35*4F
$GPGSV,3,2,12,15,32,293,42,17,54,165,38,19,29,187,34,21,19,052,23*79
$GPGSV,3,3,12,22,81,279,36,23,05,328,21,24,09,304,,30,51,128,26*74
$GPGLL,4915.24552,N,12314.09427,W,002150.20,A,A*7F
$GPRMC,002150.40,A,4915.24547,N,12314.09432,W,0.671,,081223,,,A*6A
$GPVTG,,T,,M,0.671,N,1.243,K,A*27
$GPGGA,002150.40,4915.24547,N,12314.09432,W,1,09,1.03,87.4,M,-17.5,M,,*52
$GPGSA,A,3,22,14,13,17,30,15,19,21,23,,,,1.70,1.03,1.35*0D
$GPGSV,3,1,12,02,23,063,,07,,,33,13,54,249,31,14,76,055,28*49
$GPGSV,3,2,12,15,32,293,41,17,54,165,41,19,29,187,34,21,19,052,23*74
$GPGSV,3,3,12,22,81,279,36,23,05,328,21,24,09,304,,30,51,128,26*74
$GPGLL,4915.24547,N,12314.09432,W,002150.40,A,A*79
$GPRMC,002150.60,A,4915.24544,N,12314.09443,W,1.054,,081223,,,A*6D
$GPVTG,,T,,M,1.054,N,1.952,K,A*2C
$GPGGA,002150.60,4915.24544,N,12314.09443,W,1,09,1.03,88.0,M,-17.5,M,,*5E
$GPGSA,A,3,22,14,13,17,30,15,19,21,23,,,,1.70,1.03,1.35*0D
$GPGSV,3,1,12,02,23,063,,07,,,30,13,54,249,31,14,76,055,28*4A
$GPGSV,3,2,12,15,32,293,38,17,54,165,40,19,29,187,34,21,19,052,22*7A
$GPGSV,3,3,12,22,81,279,36,23,05,328,20,24,09,304,,30,51,128,31*73
$GPGLL,4915.24544,N,12314.09443,W,002150.60,A,A*7E
$GPRMC,002150.80,A,4915.24543,N,12314.09450,W,0.884,,081223,,,A*62
$GPVTG,,T,,M,0.884,N,1.636,K,A*25
$GPGGA,002150.80,4915.24543,N,12314.09450,W,1,09,1.03,88.4,M,-17.5,M,,*51
$GPGSA,A,3,22,14,13,17,30,15,19,21,23,,,,1.70,1.03,1.35*0D
$GPGSV,3,1,12,02,23,063,,07,,,34,13,54,249,31,14,76,055,32*45
$GPGSV,3,2,12,15,32,293,33,17,54,165,38,19,29,187,34,21,19,052,21*7D
$GPGSV,3,3,12,22,81,279,35,23,05,328,20,24,09,304,,30,51,128,31*70
$GPGLL,4915.24543,N,12314.09450,W,002150.80,A,A*75
$GPRMC,002151.00,A,4915.24547,N,12314.09452,W,0.508,,081223,,,A*64
$GPVTG,,T,,M,0.508,N,0.941,K,A*22
$GPGGA,002151.00,4915.24547,N,12314.09452,W,1,09,1.03,88.6,M,-17.5,M,,*5C
$GPGSA,A,3,22,14,13,17,30,15,19,21,23,,,,1.70,1.03,1.35*0D
$GPGSV,3,1,12,02,23,063,,07,,,22,13,54,249,31,14,76,055,27*46
$GPGSV,3,2,12,15,32,293,36,17,54,165,35,19,29,187,34,21,19,052,21*75
$GPGSV,3,3,12,22,81,279,32,23,05,328,19,24,09,304,,30,51,128,35*79
$GPGLL,4915.24547,N,12314.09452,W,002151.00,A,A*7A
$GPRMC,002151.20,A,4915.24547,N,12314.09460,W,0.713,,081223,,,A*6F
$GPVTG,,T,,M,0.713,N,1.320,K,A*26
$GPGGA,002151.20,4915.24547,N,12314.09460,W,1,09,1.03,88.8,M,-17.5,M,,*51
$GPGSA,A,3,22,14,13,17,30,15,19,21,23,,,,1.70,1.03,1.35*0D
$GPGSV,3,1,12,02,23,063,,07,,,22,13,54,249,34,14,76,055,27*43
$GPGSV,3,2,12,15,32,293,38,17,54,165,38,19,29,187,34,21,19,052,20*77
$GPGSV,3,3,12,22,81,279,32,23,05,328,19,24,09,304,,30,51,128,35*79
$GPGLL,4915.24547,N,12314.09460,W,002151.20,A,A*79
$GPRMC,002151.40,A,4915.24548,N,12314.09469,W,0.663,,081223,,,A*69
$GPVTG,,T,,M,0.663,N,1.229,K,A*28
$GPGGA,002151.40,4915.24548,N,12314.09469,W,1,09,1.03,89.0,M,-17.5,M,,*58
$GPGSA,A,3,22,14,13,17,30,15,19,21,23,,,,1.70,1.03,1.35*0D
$GPGSV,3,1,12,02,23,063,,07,,,22,13,54,249,31,14,76,055,26*47
$GPGSV,3,2,12,15,32,293,38,17,54,165,32,19,29,187,34,21,19,052,20*7D
$GPGSV,3,3,12,22,81,279,32,23,05,328,18,24,09,304,,30,51,128,31*7C
$GPGLL,4915.24548,N,12314.09469,W,002151.40,A,A*79
$GPRMC,002151.60,A,4915.24551,N,12314.09478,W,0.529,,081223,,,A*6E
$GPVTG,,T,,M,0.529,N,0.981,K,A*2D
$GPGGA,002151.60,4915.24551,N,12314.09478,W,1,09,1.03,89.2,M,-17.5,M,,*50
$GPGSA,A,3,22,14,13,17,30,15,19,21,23,,,,1.70,1.03,1.35*0D
$GPGSV,3,1,12,02,23,063,,07,,,21,13,54,249,31,14,76,055,27*45
$GPGSV,3,2,12,15,32,293,38,17,54,165,27,19,29,187,34,21,19,052,21*78
$GPGSV,3,3,12,22,81,279,32,23,05,328,18,24,09,304,,30,51,128,31*7C
$GPGLL,4915.24551,N,12314.09478,W,002151.60,A,A*73
$GPRMC,002151.80,A,4915.24548,N,12314.09491,W,0.767,,081223,,,A*67
$GPVTG,,T,,M,0.767,N,1.421,K,A*23
$GPGGA,002151.80,4915.24548,N,12314.09491,W,1,09,1.03,89.4,M,-17.5,M,,*57
$GPGSA,A,3,22,14,13,17,30,15,19,21,23,,,,1.70,1.03,1.35*0D
$GPGSV,3,1,12,02,23,063,,07,,,22,13,54,249,31,14,76,055,32*42
$GPGSV,3,2,12,15,32,293,38,17,54,165,26,19,29,187,34,21,19,052,21*79
$GPGSV,3,3,12,22,81,279,33,23,05,328,19,24,09,304,,30,51,128,26*7A
$GPGLL,4915.24548,N,12314.09491,W,002151.80,A,A*72
$GPRMC,002152.00,A,4915.24547,N,12314.09505,W,0.769,,081223,,,A*61
$GPVTG,,T,,M,0.769,N,1.424,K,A*28
$GPGGA,002152.00,4915.24547,N,12314.09505,W,1,09,1.03,89.7,M,-17.5,M,,*5C
$GPGSA,A,3,22,14,13,17,30,15,19,21,23,,,,1.70,1.03,1.35*0D
$GPGSV,3,1,12,02,23,063,,07,,,23,13,54,249,31,14,76,055,32*43
$GPGSV,3,2,12,15,32,293,38,17,54,165,26,19,29,187,34,21,19,052,21*79
$GPGSV,3,3,12,22,81,279,33,23,05,328,19,24,09,304,,30,51,128,26*7A
$GPGLL,4915.24547,N,12314.09505,W,002152.00,A,A*7A
$GPRMC,002152.20,A,4915.24547,N,12314.09519,W,0.862,,081223,,,A*6A
$GPVTG,,T,,M,0.862,N,1.597,K,A*25
$GPGGA,002152.20,4915.24547,N,12314.09519,W,1,09,1.03,89.8,M,-17.5,M,,*5C
$GPGSA,A,3,22,14,13,17,30,15,19,21,23,,,,1.70,1.03,1.35*0D
$GPGSV,3,1,12,02,23,063,,07,,,23,13,54,249,26,14,76,055,36*41
$GPGSV,3,2,12,15,32,293,40,17,54,165,31,19,29,187,35,21,19,052,22*72
$GPGSV,3,3,12,22,81,279,35,23,05,328,19,24,09,304,,30,51,128,31*7A
$GPGLL,4915.24547,N,12314.09519,W,002152.20,A,A*75
$GPRMC,002152.40,A,4915.24553,N,12314.09529,W,0.667,,081223,,,A*61
$GPVTG,,T,,M,0.667,N,1.236,K,A*22
$GPGGA,002152.40,4915.24553,N,12314.09529,W,1,09,1.03,90.1,M,-17.5,M,,*5D
$GPGSA,A,3,22,14,13,17,30,15,19,21,23,,,,1.70,1.03,1.35*0D
$GPGSV,3,1,12,02,23,063,,07,,,30,13,54,249,26,14,76,055,38*4D
$GPGSV,3,2,12,15,32,293,36,17,54,165,31,19,29,187,37,21,19,052,21*72
$GPGSV,3,3,12,22,81,279,35,23,05,328,20,24,09,304,,30,51,128,27*77
$GPGLL,4915.24553,N,12314.09529,W,002152.40,A,A*75
$GPRMC,002152.60,A,4915.24560,N,12314.09549,W,0.789,,081223,,,A*64
$GPVTG,,T,,M,0.789,N,1.461,K,A*27
$GPGGA,002152.60,4915.24560,N,12314.09549,W,1,09,1.03,90.3,M,-17.5,M,,*5B
$GPGSA,A,3,22,14,13,17,30,15,19,21,23,,,,1.70,1.03,1.35*0D
$GPGSV,3,1,12,02,23,063,,07,,,34,13,54,249,25,14,76,055,34*46
$GPGSV,3,2,12,15,32,293,38,17,54,165,26,19,29,187,37,21,19,052,20*7B
$GPGSV,3,3,12,22,81,279,35,23,05,328,20,24,09,304,,30,51,128,38*79
$GPGLL,4915.24560,N,12314.09549,W,002152.60,A,A*71
$GPRMC,002152.80,A,4915.24561,N,12314.09575,W,0.979,,081223,,,A*65
$GPVTG,,T,,M,0.979,N,1.812,K,A*2E
$GPGGA,002152.80,4915.24561,N,12314.09575,W,1,09,1.03,90.7,M,-17.5,M,,*5F
$GPGSA,A,3,22,14,13,17,30,15,19,21,23,,,,1.70,1.03,1.35*0D
$GPGSV,3,1,12,02,23,063,,07,,,30,13,54,249,26,14,76,055,34*41
$GPGSV,3,2,12,15,32,293,36,17,54,165,32,19,29,187,37,21,19,052,20*70
$GPGSV,3,3,12,22,81,279,35,23,05,328,21,24,09,304,,30,51,128,38*78
$GPGLL,4915.24561,N,12314.09575,W,002152.80,A,A*71
$GPRMC,002153.00,A,4915.24562,N,12314.09592,W,1.075,,081223,,,A*62
$GPVTG,,T,,M,1.075,N,1.992,K,A*23
$GPGGA,002153.00,4915.24562,N,12314.09592,W,1,09,1.03,91.0,M,-17.5,M,,*5A
$GPGSA,A,3,22,14,13,17,30,15,19,21,23,,,,1.70,1.03,1.35*0D
$GPGSV,3,1,12,02,23,063,,07,,,31,13,54,249,26,14,76,055,30*44
$GPGSV,3,2,12,15,32,293,34,17,54,165,31,19,29,187,37,21,19,052,20*71
$GPGSV,3,3,12,22,81,279,32,23,05,328,20,24,09,304,24,30,51,128,32*72
$GPGLL,4915.24562,N,12314.09592,W,002153.00,A,A*72
$GPRMC,002153.20,A,4915.24561,N,12314.09609,W,1.160,,081223,,,A*67
$GPVTG,,T,,M,1.160,N,2.149,K,A*2B
$GPGGA,002153.20,4915.24561,N,12314.09609,W,1,09,1.03,91.3,M,-17.5,M,,*59
$GPGSA,A,3,22,14,13,17,30,15,19,21,23,,,,1.70,1.03,1.35*0D
$GPGSV,4,1,13,02,23,063,,07,,,31,13,54,249,26,14,76,055,30*42
$GPGSV,4,2,13,15,32,293,33,17,54,165,31,19,29,187,36,21,19,052,20*71
$GPGSV,4,3,13,22,81,279,31,23,05,328,20,24,09,304,24,30,51,128,29*7D
$GPGSV,4,4,13,46,29,148,31*4D
$GPGLL,4915.24561,N,12314.09609,W,002153.20,A,A*72
$GPRMC,002153.40,A,4915.24562,N,12314.09628,W,1.113,,081223,,,A*65
$GPVTG,,T,,M,1.113,N,2.061,K,A*24
$GPGGA,002153.40,4915.24562,N,12314.09628,W,1,09,1.03,91.6,M,-17.5,M,,*5A
$GPGSA,A,3,22,14,13,17,30,15,19,21,23,,,,1.70,1.03,1.35*0D
$GPGSV,4,1,13,02,23,063,,07,,,31,13,54,249,26,14,76,055,30*42
$GPGSV,4,2,13,15,32,293,34,17,54,165,31,19,29,187,36,21,19,052,20*76
$GPGSV,4,3,13,22,81,279,31,23,05,328,20,24,09,304,23,30,51,128,35*77
$GPGSV,4,4,13,46,29,148,30*4C
$GPGLL,4915.24562,N,12314.09628,W,002153.40,A,A*74
$GPRMC,002153.60,A,4915.24564,N,12314.09648,W,1.028,,081223,,,A*6E
$GPVTG,,T,,M,1.028,N,1.905,K,A*25
$GPGGA,002153.60,4915.24564,N,12314.09648,W,1,09,1.03,92.0,M,-17.5,M,,*5D
$GPGSA,A,3,22,14,13,17,30,15,19,21,23,,,,1.70,1.03,1.35*0D
$GPGSV,4,1,13,02,23,063,,07,,,31,13,54,249,31,14,76,055,29*4C
$GPGSV,4,2,13,15,32,293,36,17,54,165,31,19,29,187,36,21,19,052,20*74
$GPGSV,4,3,13,22,81,279,31,23,05,328,20,24,09,304,22,30,51,128,35*76
$GPGSV,4,4,13,46,29,148,30*4C
$GPGLL,4915.24564,N,12314.09648,W,002153.60,A,A*76
$GPRMC,002153.80,A,4915.24565,N,12314.09667,W,0.980,,081223,,,A*66
$GPVTG,,T,,M,0.980,N,1.815,K,A*2F
$GPGGA,002153.80,4915.24565,N,12314.09667,W,1,09,1.03,92.3,M,-17.5,M,,*5C
$GPGSA,A,3,22,14,13,17,30,15,19,21,23,,,,1.70,1.03,1.35*0D
$GPGSV,4,1,13,02,23,063,,07,,,26,13,54,249,26,14,76,055,29*4C
$GPGSV,4,2,13,15,32,293,34,17,54,165,31,19,29,187,33,21,19,052,19*79
$GPGSV,4,3,13,22,81,279,31,23,05,328,19,24,09,304,22,30,51,128,33*7A
$GPGSV,4,4,13,46,29,148,29*44
$GPGLL,4915.24565,N,12314.09667,W,002153.80,A,A*74
$GPRMC,002154.00,A,4915.24565,N,12314.09681,W,0.808,,081223,,,A*60
$GPVTG,,T,,M,0.808,N,1.496,K,A*29
$GPGGA,002154.00,4915.24565,N,12314.09681,W,1,09,1.03,92.5,M,-17.5,M,,*5D
$GPGSA,A,3,22,14,13,17,30,15,19,21,23,,,,1.70,1.03,1.35*0D
$GPGSV,4,1,13,02,23,063,,07,,,26,13,54,249,26,14,76,055,30*44
$GPGSV,4,2,13,15,32,293,36,17,54,165,31,19,29,187,33,21,19,052,19*7B
$GPGSV,4,3,13,22,81,279,37,23,05,328,19,24,09,304,22,30,51,128,33*7C
$GPGSV,4,4,13,46,29,148,29*44
$GPGLL,4915.24565,N,12314.09681,W,002154.00,A,A*73
$GPRMC,002154.20,A,4915.24567,N,12314.09696,W,0.702,,081223,,,A*63
$GPVTG,,T,,M,0.702,N,1.300,K,A*24
$GPGGA,002154.20,4915.24567,N,12314.09696,W,1,09,1.03,92.5,M,-17.5,M,,*5B
$GPGSA,A,3,22,14,13,17,30,15,19,21,23,,,,1.70,1.03,1.35*0D
$GPGSV,4,1,13,02,23,063,,07,,,26,13,54,249,26,14,76,055,36*42
$GPGSV,4,2,13,15,32,293,38,17,54,165,31,19,29,187,33,21,19,052,18*74
$GPGSV,4,3,13,22,81,279,37,23,05,328,18,24,09,304,22,30,51,128,36*78
$GPGSV,4,4,13,46,29,148,29*44
$GPGLL,4915.24567,N,12314.09696,W,002154.20,A,A*75
$GPRMC,002154.40,A,4915.24565,N,12314.09718,W,0.972,,081223,,,A*69
$GPVTG,,T,,M,0.972,N,1.801,K,A*27
$GPGGA,002154.40,4915.24565,N,12314.09718,W,1,09,1.03,92.4,M,-17.5,M,,*59
$GPGSA,A,3,22,14,13,17,30,15,19,21,23,,,,1.70,1.03,1.35*0D
$GPGSV,4,1,13,02,23,063,,07,,,31,13,54,249,35,14,76,055,36*46
$GPGSV,4,2,13,15,32,293,42,17,54,165,32,19,29,187,29,21,19,052,18*71
$GPGSV,4,3,13,22,81,279,37,23,05,328,18,24,09,304,22,30,51,128,35*7B
$GPGSV,4,4,13,46,29,148,29*44
$GPGLL,4915.24565,N,12314.09718,W,002154.40,A,A*76
$GPRMC,002154.60,A,4915.24565,N,12314.09740,W,1.375,,081223,,,A*6A
$GPVTG,,T,,M,1.375,N,2.547,K,A*27
$GPGGA,002154.60,4915.24565,N,12314.09740,W,1,09,1.03,92.2,M,-17.5,M,,*50
$GPGSA,A,3,22,14,13,17,30,15,19,21,23,,,,1.70,1.03,1.35*0D
$GPGSV,4,1,13,02,23,063,,07,,,26,13,54,249,37,14,76,055,36*42
$GPGSV,4,2,13,15,33,293,41,17,54,165,35,19,29,187,29,21,19,052,18*74
$GPGSV,4,3,13,22,81,279,37,23,05,328,18,24,09,304,22,30,51,128,27*78
$GPGSV,4,4,13,46,29,148,29*44
$GPGLL,4915.24565,N,12314.09740,W,002154.60,A,A*79
$GPRMC,002154.80,A,4915.24570,N,12314.09749,W,1.152,,081223,,,A*6E
$GPVTG,,T,,M,1.152,N,2.134,K,A*20
$GPGGA,002154.80,4915.24570,N,12314.09749,W,1,09,1.03,92.0,M,-17.5,M,,*51
$GPGSA,A,3,22,14,13,17,30,15,19,21,23,,,,1.70,1.03,1.35*0D
$GPGSV,4,1,13,02,23,063,,07,,,32,13,54,249,34,14,76,055,38*4A
$GPGSV,4,2,13,15,33,293,41,17,54,165,35,19,29,187,29,21,19,052,18*74
$GPGSV,4,3,13,22,81,279,37,23,05,328,18,24,09,304,22,30,51,128,28*77
$GPGSV,4,4,13,46,29,148,30*4C
$GPGLL,4915.24570,N,12314.09749,W,002154.80,A,A*7A
$GPRMC,002155.00,A,4915.24566,N,12314.09761,W,0.867,,081223,,,A*64
$GPVTG,,T,,M,0.867,N,1.606,K,A*2B
$GPGGA,002155.00,4915.24566,N,12314.09761,W,1,09,1.03,91.8,M,-17.5,M,,*5E
$GPGSA,A,3,22,14,13,17,30,15,19,21,23,,,,1.70,1.03,1.35*0D
$GPGSV,4,1,13,02,23,063,,07,,,35,13,54,249,34,14,76,055,38*4D
$GPGSV,4,2,13,15,33,293,38,17,54,165,35,19,29,187,29,21,19,052,18*7A
$GPGSV,4,3,13,22,81,279,34,23,05,328,18,24,09,304,20,30,51,128,32*7D
$GPGSV,4,4,13,46,29,148,30*4C
$GPGLL,4915.24566,N,12314.09761,W,002155.00,A,A*7E
$GPRMC,002155.20,A,4915.24558,N,12314.09773,W,0.590,,081223,,,A*6D
$GPVTG,,T,,M,0.590,N,1.092,K,A*25
$GPGGA,002155.20,4915.24558,N,12314.09773,W,1,09,1.03,91.8,M,-17.5,M,,*52
$GPGSA,A,3,22,14,13,17,30,15,19,21,23,,,,1.70,1.03,1.35*0D
$GPGSV,4,1,13,02,23,063,,07,,,32,13,54,249,37,14,76,055,36*47
$GPGSV,4,2,13,15,33,293,41,17,54,165,35,19,29,187,29,21,19,052,18*74
$GPGSV,4,3,13,22,81,279,37,23,05,328,18,24,09,304,20,30,51,128,35*79
$GPGSV,4,4,13,46,29,148,34*48
$GPGLL,4915.24558,N,12314.09773,W,002155.20,A,A*72
$GPRMC,002155.40,A,4915.24554,N,12314.09774,W,0.347,,081223,,,A*6C
$GPVTG,,T,,M,0.347,N,0.643,K,A*22
$GPGGA,002155.40,4915.24554,N,12314.09774,W,1,09,1.38,91.5,M,-17.5,M,,*5A
$GPGSA,A,3,22,14,13,17,30,15,19,21,23,,,,2.03,1.38,1.49*09
$GPGSV,4,1,13,02,23,063,18,07,,,27,13,54,249,31,14,76,055,38*42
$GPGSV,4,2,13,15,33,293,40,17,54,165,26,19,29,187,33,21,19,052,19*7D
$GPGSV,4,3,13,22,81,279,39,23,05,328,20,24,09,304,20,30,51,128,31*78
$GPGSV,4,4,13,46,29,148,34*48
$GPGLL,4915.24554,N,12314.09774,W,002155.40,A,A*7F
$GPRMC,002155.60,A,4915.24559,N,12314.09771,W,0.076,,081223,,,A*67
$GPVTG,,T,,M,0.076,N,0.141,K,A*26
$GPGGA,002155.60,4915.24559,N,12314.09771,W,1,09,1.38,91.3,M,-17.5,M,,*56
$GPGSA,A,3,22,14,13,17,30,15,19,21,23,,,,2.03,1.38,1.49*09
$GPGSV,4,1,13,02,23,063,18,07,,,27,13,54,249,31,14,76,055,36*4C
$GPGSV,4,2,13,15,33,293,36,17,54,165,37,19,29,187,33,21,19,052,20*76
$GPGSV,4,3,13,22,81,279,37,23,05,328,21,24,09,304,20,30,51,128,31*77
$GPGSV,4,4,13,46,29,148,30*4C
$GPGLL,4915.24559,N,12314.09771,W,002155.60,A,A*75
$GPRMC,002155.80,A,4915.24556,N,12314.09779,W,0.314,,081223,,,A*69
$GPVTG,,T,,M,0.314,N,0.582,K,A*2A
$GPGGA,002155.80,4915.24556,N,12314.09779,W,1,09,1.38,91.2,M,-17.5,M,,*5E
$GPGSA,A,3,22,14,13,17,30,15,19,21,23,,,,2.03,1.38,1.49*09
$GPGSV,4,1,13,02,23,063,19,07,,,35,13,54,249,31,14,76,055,38*40
$GPGSV,4,2,13,15,33,293,34,17,54,165,40,19,29,187,34,21,19,051,20*70
$GPGSV,4,3,13,22,81,279,34,23,05,328,21,24,09,304,19,30,51,128,34*7B
$GPGSV,4,4,13,46,29,148,36*4A
$GPGLL,4915.24556,N,12314.09779,W,002155.80,A,A*7C
$GPRMC,002156.00,A,4915.24542,N,12314.09779,W,0.980,,081223,,,A*60
$GPVTG,,T,,M,0.980,N,1.814,K,A*2E
$GPGGA,002156.00,4915.24542,N,12314.09779,W,1,09,1.38,91.2,M,-17.5,M,,*50
$GPGSA,A,3,22,14,13,17,30,15,19,21,23,,,,2.03,1.38,1.49*09
$GPGSV,4,1,13,02,23,063,19,07,,,31,13,54,249,34,14,76,055,38*41
$GPGSV,4,2,13,15,33,293,38,17,54,165,40,19,29,187,32,21,19,051,20*7A
$GPGSV,4,3,13,22,81,280,37,23,05,328,21,24,09,304,19,30,51,128,32*78
$GPGSV,4,4,13,46,29,148,30*4C
$GPGLL,4915.24542,N,12314.09779,W,002156.00,A,A*72
$GPRMC,002156.20,A,4915.24535,N,12314.09776,W,1.025,,081223,,,A*6A
$GPVTG,,T,,M,1.025,N,1.898,K,A*2D
$GPGGA,002156.20,4915.24535,N,12314.09776,W,1,09,1.38,91.2,M,-17.5,M,,*5D
$GPGSA,A,3,22,14,13,17,30,15,19,21,23,,,,2.03,1.38,1.49*09
$GPGSV,4,1,13,02,23,063,19,07,,,30,13,54,249,34,14,76,055,40*4F
$GPGSV,4,2,13,15,33,293,36,17,54,165,36,19,29,187,31,21,19,051,19*7C
$GPGSV,4,3,13,22,81,280,36,23,05,328,21,24,09,304,18,30,51,128,34*7E
$GPGSV,4,4,13,46,29,148,30*4C
$GPGLL,4915.24535,N,12314.09776,W,002156.20,A,A*7F
$GPRMC,002156.40,A,4915.24535,N,12314.09764,W,0.871,,081223,,,A*67
$GPVTG,,T,,M,0.871,N,1.613,K,A*28
$GPGGA,002156.40,4915.24535,N,12314.09764,W,1,09,1.38,91.0,M,-17.5,M,,*5A
$GPGSA,A,3,22,14,13,17,30,15,19,21,23,,,,2.03,1.38,1.49*09
$GPGSV,4,1,13,02,23,063,19,07,,,31,13,54,249,36,14,76,055,42*4E
$GPGSV,4,2,13,15,33,293,36,17,54,165,33,19,29,187,30,21,19,051,20*72
$GPGSV,4,3,13,22,81,280,31,23,05,328,20,24,09,304,18,30,51,128,31*7D
$GPGSV,4,4,13,46,29,148,30*4C
$GPGLL,4915.24535,N,12314.09764,W,002156.40,A,A*7A
$GPRMC,002156.60,A,4915.24530,N,12314.09754,W,0.954,,081223,,,A*65
$GPVTG,,T,,M,0.954,N,1.767,K,A*2C
$GPGGA,002156.60,4915.24530,N,12314.09754,W,1,09,1.03,91.1,M,-17.5,M,,*57
$GPGSA,A,3,22,14,13,17,30,15,19,21,23,,,,1.70,1.03,1.35*0D
$GPGSV,4,1,13,02,23,063,18,07,,,31,13,54,249,34,14,76,055,34*4C
$GPGSV,4,2,13,15,33,293,35,17,54,165,33,19,29,187,30,21,19,051,20*71
$GPGSV,4,3,13,22,81,280,35,23,05,328,20,24,09,304,18,30,51,128,32*7A
$GPGSV,4,4,13,46,29,148,29*44
$GPGLL,4915.24530,N,12314.09754,W,002156.60,A,A*7E
$GPRMC,002156.80,A,4915.24526,N,12314.09743,W,1.137,,081223,,,A*66
$GPVTG,,T,,M,1.137,N,2.105,K,A*21
$GPGGA,002156.80,4915.24526,N,12314.09743,W,1,09,1.03,91.4,M,-17.5,M,,*5D
$GPGSA,A,3,22,14,13,17,30,15,19,21,23,,,,1.70,1.03,1.35*0D
$GPGSV,4,1,13,02,23,063,19,07,,,31,13,54,249,36,14,76,055,35*4E
$GPGSV,4,2,13,15,33,293,35,17,54,165,33,19,29,187,30,21,19,051,19*7B
$GPGSV,4,3,13,22,81,280,35,23,05,328,20,24,09,304,17,30,51,128,35*72
$GPGSV,4,4,13,46,29,148,29*44
$GPGLL,4915.24526,N,12314.09743,W,002156.80,A,A*71
$GPRMC,002157.00,A,4915.24522,N,12314.09729,W,1.380,,081223,,,A*69
$GPVTG,,T,,M,1.380,N,2.557,K,A*2C
$GPGGA,002157.00,4915.24522,N,12314.09729,W,1,09,1.03,91.7,M,-17.5,M,,*5F
$GPGSA,A,3,22,14,13,17,30,15,19,21,23,,,,1.70,1.03,1.35*0D
$GPGSV,4,1,13,02,23,063,19,07,,,31,13,54,249,37,14,76,055,39*43
$GPGSV,4,2,13,15,33,293,35,17,54,165,29,19,29,187,23,21,19,051,19*72
$GPGSV,4,3,13,22,81,280,35,23,05,328,21,24,09,304,17,30,51,128,39*7F
$GPGSV,4,4,13,46,29,148,28*45
$GPGLL,4915.24522,N,12314.09729,W,002157.00,A,A*70
$GPRMC,002157.20,A,4915.24515,N,12314.09709,W,1.931,132.30,081223,,,A*70
$GPVTG,132.30,T,,M,1.931,N,3.576,K,A*33
$GPGGA,002157.20,4915.24515,N,12314.09709,W,1,09,1.03,92.0,M,-17.5,M,,*5F
$GPGSA,A,3,22,14,13,17,30,15,19,21,23,,,,1.70,1.03,1.35*0D
$GPGSV,4,1,13,02,23,063,18,07,,,31,13,54,249,37,14,76,055,39*42
$GPGSV,4,2,13,15,33,293,32,17,54,165,29,19,29,187,24,21,19,051,19*72
$GPGSV,4,3,13,22,81,280,35,23,05,328,21,24,09,304,17,30,51,128,37*71
$GPGSV,4,4,13,46,29,148,28*45
$GPGLL,4915.24515,N,12314.09709,W,002157.20,A,A*74
$GPRMC,002157.40,A,4915.24499,N,12314.09689,W,2.751,142.11,081223,,,A*75
$GPVTG,142.11,T,,M,2.751,N,5.095,K,A*32
$GPGGA,002157.40,4915.24499,N,12314.09689,W,1,09,1.03,92.3,M,-17.5,M,,*56
$GPGSA,A,3,22,14,13,17,30,15,19,21,23,,,,1.70,1.03,1.35*0D
$GPGSV,4,1,13,02,23,063,19,07,,,26,13,54,249,37,14,76,055,41*4A
$GPGSV,4,2,13,15,33,293,38,17,54,165,34,19,29,187,31,21,19,051,20*7A
$GPGSV,4,3,13,22,81,280,36,23,05,328,21,24,09,304,17,30,51,128,32*77
$GPGSV,4,4,13,46,29,148,29*44
$GPGLL,4915.24499,N,12314.09689,W,002157.40,A,A*7E
$GPRMC,002157.60,A,4915.24488,N,12314.09662,W,3.156,144.54,081223,,,A*75
$GPVTG,144.54,T,,M,3.156,N,5.845,K,A*30
$GPGGA,002157.60,4915.24488,N,12314.09662,W,1,09,1.03,92.3,M,-17.5,M,,*51
$GPGSA,A,3,22,14,13,17,30,15,19,21,23,,,,1.70,1.03,1.35*0D
$GPGSV,4,1,13,02,23,063,19,07,,,26,13,54,249,39,14,76,055,41*44
$GPGSV,4,2,13,15,33,293,36,17,54,165,30,19,29,187,31,21,19,051,21*71
$GPGSV,4,3,13,22,81,280,36,23,05,328,21,24,09,304,18,30,51,128,33*79
$GPGSV,4,4,13,46,29,148,29*44
$GPGLL,4915.24488,N,12314.09662,W,002157.60,A,A*79
$GPRMC,002157.80,A,4915.24481,N,12314.09644,W,2.769,144.75,081223,,,A*7E
$GPVTG,144.75,T,,M,2.769,N,5.129,K,A*3B
$GPGGA,002157.80,4915.24481,N,12314.09644,W,1,09,1.03,92.6,M,-17.5,M,,*57
$GPGSA,A,3,22,14,13,17,30,15,19,21,23,,,,1.70,1.03,1.35*0D
$GPGSV,4,1,13,02,23,063,19,07,,,27,13,54,249,37,14,76,055,39*44
$GPGSV,4,2,13,15,33,293,36,17,54,165,30,19,29,187,26,21,19,051,21*77
$GPGSV,4,3,13,22,81,280,36,23,05,328,21,24,09,304,19,30,51,128,38*73
$GPGSV,4,4,13,46,29,148,29*44
$GPGLL,4915.24481,N,12314.09644,W,002157.80,A,A*7A
$GPRMC,002158.00,A,4915.24462,N,12314.09616,W,3.312,145.10,081223,,,A*78
$GPVTG,145.10,T,,M,3.312,N,6.133,K,A*38
$GPGGA,002158.00,4915.24462,N,12314.09616,W,1,09,1.03,92.7,M,-17.5,M,,*5B
$GPGSA,A,3,22,14,13,17,30,15,19,21,23,,,,1.70,1.03,1.35*0D
$GPGSV,4,1,13,02,23,063,20,07,,,35,13,54,249,35,14,76,055,36*40
$GPGSV,4,2,13,15,33,293,34,17,54,165,35,19,29,187,27,21,19,051,21*71
$GPGSV,4,3,13,22,81,280,34,23,05,328,22,24,09,304,19,30,51,128,40*7D
$GPGSV,4,4,13,46,29,148,29*44
$GPGLL,4915.24462,N,12314.09616,W,002158.00,A,A*77
$GPRMC,002158.20,A,4915.24442,N,12314.09597,W,3.437,147.53,081223,,,A*77
$GPVTG,147.53,T,,M,3.437,N,6.366,K,A*3F
$GPGGA,002158.20,4915.24442,N,12314.09597,W,1,09,1.03,92.7,M,-17.5,M,,*51
$GPGSA,A,3,22,14,13,17,30,15,19,21,23,,,,1.70,1.03,1.35*0D
$GPGSV,4,1,13,02,23,063,20,07,,,35,13,54,249,31,14,76,055,39*4B
$GPGSV,4,2,13,15,33,293,30,17,54,165,35,19,29,187,27,21,19,051,21*75
$GPGSV,4,3,13,22,81,280,34,23,05,328,22,24,09,304,19,30,51,128,43*7E
$GPGSV,4,4,13,46,29,148,29*44
$GPGLL,4915.24442,N,12314.09597,W,002158.20,A,A*7D
$GPRMC,002158.40,A,4915.24419,N,12314.09556,W,4.182,143.07,081223,,,A*7B
$GPVTG,143.07,T,,M,4.182,N,7.745,K,A*32
$GPGGA,002158.40,4915.24419,N,12314.09556,W,1,09,1.03,93.0,M,-17.5,M,,*52
$GPGSA,A,3,22,14,13,17,30,15,19,21,23,,,,1.70,1.03,1.35*0D
$GPGSV,4,1,13,02,23,063,19,07,,,32,13,54,249,31,14,76,055,42*4A
$GPGSV,4,2,13,15,33,293,29,17,54,165,39,19,29,187,27,21,19,051,21*71
$GPGSV,4,3,13,22,81,280,34,23,05,328,22,24,09,304,19,30,51,128,40*7D
$GPGSV,4,4,13,46,29,148,28*45
$GPGLL,4915.24419,N,12314.09556,W,002158.40,A,A*78
$GPRMC,002158.60,A,4915.24395,N,12314.09519,W,4.854,140.01,081223,,,A*76
$GPVTG,140.01,T,,M,4.854,N,8.990,K,A*3C
$GPGGA,002158.60,4915.24395,N,12314.09519,W,1,09,1.03,93.2,M,-17.5,M,,*5A
$GPGSA,A,3,22,14,13,17,30,15,19,21,23,,,,1.70,1.03,1.35*0D
$GPGSV,4,1,13,02,23,063,20,07,,,36,13,54,249,31,14,76,055,43*45
$GPGSV,4,2,13,15,33,293,30,17,54,165,34,19,29,187,28,21,19,051,21*7B
$GPGSV,4,3,13,22,81,280,35,23,05,328,22,24,09,304,19,30,51,128,36*7D
$GPGSV,4,4,13,46,29,148,29*44
$GPGLL,4915.24395,N,12314.09519,W,002158.60,A,A*72
$GPRMC,002158.80,A,4915.24374,N,12314.09480,W,5.072,138.56,081223,,,A*76
$GPVTG,138.56,T,,M,5.072,N,9.392,K,A*35
$GPGGA,002158.80,4915.24374,N,12314.09480,W,1,09,1.03,93.2,M,-17.5,M,,*5A
$GPGSA,A,3,22,14,13,17,30,15,19,21,23,,,,1.70,1.03,1.35*0D
$GPGSV,4,1,13,02,23,063,20,07,,,28,13,54,249,35,14,76,055,43*4E
$GPGSV,4,2,13,15,33,293,30,17,54,165,34,19,29,187,27,21,19,051,21*74
$GPGSV,4,3,13,22,81,280,34,23,05,328,21,24,09,304,20,30,51,128,36*75
$GPGSV,4,4,13,46,29,148,29*44
$GPGLL,4915.24374,N,12314.09480,W,002158.80,A,A*72
$GPRMC,002159.00,A,4915.24357,N,12314.09430,W,5.173,136.00,081223,,,A*78
$GPVTG,136.00,T,,M,5.173,N,9.580,K,A*3D
$GPGGA,002159.00,4915.24357,N,12314.09430,W,1,09,1.03,93.5,M,-17.5,M,,*5E
$GPGSA,A,3,22,14,13,17,30,15,19,21,23,,,,1.70,1.03,1.35*0D
$GPGSV,4,1,13,02,23,063,21,07,,,28,13,54,249,39,14,76,055,41*41
$GPGSV,4,2,13,15,33,293,37,17,54,165,34,19,29,187,28,21,19,051,21*7C
$GPGSV,4,3,13,22,81,280,34,23,05,328,21,24,09,304,20,30,51,128,38*7B
$GPGSV,4,4,13,46,29,148,29*44
$GPGLL,4915.24357,N,12314.09430,W,002159.00,A,A*71
$GPRMC,002159.20,A,4915.24343,N,12314.09388,W,5.045,131.69,081223,,,A*77
$GPVTG,131.69,T,,M,5.045,N,9.344,K,A*3F
$GPGGA,002159.20,4915.24343,N,12314.09388,W,1,09,1.03,94.1,M,-17.5,M,,*5E
$GPGSA,A,3,22,14,13,17,30,15,19,21,23,,,,1.70,1.03,1.35*0D
$GPGSV,4,1,13,02,23,063,20,07,,,28,13,54,249,30,14,76,055,41*49
$GPGSV,4,2,13,15,33,293,39,17,54,165,34,19,29,187,27,21,19,051,21*7D
